id,name,category,add,latitude,longitude,num,cate_num,현대카드_가맹여부
1,오후2시스튜디오,사진관.현상소/사진관.현상소,경기도 용인시 수지구 신봉동 593-2번지,37.33202905,127.0556957,3121745631,8113,가맹
2,효티네일(HYO TI NAIL),피부.체형미관리/피부.체형미관리,경기도 용인시 수지구 죽전동 474번지 동남아트빌라3차,37.32725033,127.1144186,4950502555,1701,비가맹
3,샤인스킨,화장품/화장품,경기도 용인시 수지구 상현동 1117번지,37.29851993,127.0690942,6790300388,1501,비가맹
4,라보빈,침구및수예품/침구및수예품,경기도 용인시 수지구 신봉동 639번지,37.33355933,127.0527517,7623000099,1202,비가맹
5,프로쇼파 천갈이,기타수리.수선전문/기타수리.수선전문,경기도 용인시 수지구 풍덕천동 682-6번지,37.33141596,127.1011903,1420951219,3504,비가맹
6,미노스타일,기타가정.주방용품/기타가정.주방용품,경기도 용인시 수지구 신봉동 639번지,37.33355933,127.0527517,2324200397,3302,가맹
7,제이에이치허특허법률사무소,법무전문서비스/법무전문서비스,경기도 용인시 수지구 성복동 471-4번지 몽펠리에힐포레,37.31564008,127.0600469,1101453422,9502,비가맹
8,까르르빈티지샵,일반의류/일반의류,경기도 용인시 수지구 신봉동 639번지,37.33355933,127.0527517,6123206884,1106,비가맹
9,성복세차장,세차장/세차장,경기도 용인시 수지구 수지로112번길 29 (성복동),,,1420412924,6702,가맹
10,탄탄창의수학리드앤톡영어학원,"(입시학원,보습학원/입시학원,보습학원)",경기도 용인시 수지구 신봉동 50-2번지,37.32310353,127.0798795,3069519418,7201,비가맹
11,세일 앤 리퍼브,(기타식음료품/기타식음료품),경기도 용인시 수지구 죽전동 1189-1번지,37.33196069,127.1244184,3370601451,2105,비가맹
12,씨유(CU) 수지금호점,(편의점/편의점),경기도 용인시 수지구 상현동 867번지,37.3069206,127.0765052,2941701863,5202,가맹
13,GS25수지이편한점,(편의점/편의점),경기도 용인시 수지구 풍덕천동 1209번지 e편한세상수지,37.31670021,127.0840006,4401000605,5202,비가맹
14,99텔레콤,(통신기기/통신기기),경기도 용인시 수지구 성복동 381-2번지,37.32011164,127.0626618,2041739347,3202,비가맹
15,리안영어학원,"(입시학원,보습학원/입시학원,보습학원)",경기도 용인시 수지구 동천동 873-3번지,37.3359679,127.0932302,1869000251,7201,비가맹
16,온헤어샵,(미용실(두발전문)/미용실(두발전문)),경기도 용인시 수지구 동천동 145번지,37.34544225,127.0934613,5205300849,1602,비가맹
17,오브제헤어갤러리,(미용실(두발전문)/미용실(두발전문)),경기도 용인시 수지구 상현동 864번지 만현마을성원상떼빌아파트,37.30925305,127.0912752,1420330809,1602,비가맹
18,디마리아(de Maria),(미용실(두발전문)/미용실(두발전문)),경기도 용인시 수지구 죽전동 1189-3번지,37.33198094,127.1251182,4171305751,1602,비가맹
19,살롱(Salon) 아띠 친구,(미용실(두발전문)/미용실(두발전문)),경기도 용인시 수지구 동천동 121-3번지,37.34539509,127.0928519,8653200918,1602,비가맹
20,청담에스테틱,(피부.체형미관리/피부.체형미관리),경기도 용인시 수지구 상현동 1131번지,37.29838789,127.0699637,6574301044,1701,비가맹
21,주주스킨앤바디,(피부.체형미관리/피부.체형미관리),경기도 용인시 수지구 풍덕천동 1080-20번지,37.32197902,127.0960483,3862800136,1701,비가맹
22,봉구스밥버거 광교점,(일반음식점/일반음식점),경기도 용인시 수지구 상현동 1132번지,37.29820056,127.0705064,1074183891,2301,비가맹
23,꼬르륵,(일반음식점/일반음식점),경기도 용인시 수지구 풍덕천동 1167번지 진산마을삼성래미안5차아파트,37.31613195,127.0942738,5970302783,2301,비가맹
24,베트남쌀국수 포느황,(일반음식점/일반음식점),경기도 용인시 수지구 성복동 33-5번지,37.31071617,127.0817766,2577500322,2301,비가맹
25,릴리레스토,(일반음식점/일반음식점),경기도 용인시 수지구 풍덕천동 715번지,37.32498447,127.0971722,5345600494,2301,비가맹
26,콜라겐 가든,(일반음식점/일반음식점),경기도 용인시 수지구 상현동 1132-4번지,37.29657629,127.0700192,4928701024,2301,비가맹
27,매일카센타,(자동차정비/자동차정비),경기도 용인시 수지구 풍덕천1동 685-45,,,1350532045,6502,비가맹
28,지에스리테일(GS25수지송화점),(편의점/편의점),경기도 용인시 수지구 상현동 17-1번지,37.31227222,127.0911347,1420983900,5202,비가맹
29,(주)아인스코리아,(기타/기타),경기도 용인시 수지구 풍덕천동 1120-4번지,37.31660661,127.0881656,7618101229,5301,비가맹
30,대림아이디,(기타건축자재/기타건축자재),경기도 용인시 수지구 풍덕천동 743-2번지,37.32646127,127.102063,8156600368,3403,비가맹
31,아트타일,(기타건축자재/기타건축자재),경기도 용인시 수지구 상현동 832번지,37.3040072,127.0810352,3053766320,3403,비가맹
32,블랙홀호프,(일반음식점/일반음식점),경기도 용인시 수지구 상현동 108-1번지 대진아파트,37.30866958,127.0765857,5773600381,2301,비가맹
33,돌핀짐(DolphinGym),(헬스클럽/헬스클럽),경기도 용인시 수지구 풍덕천동 707-4번지,37.32448983,127.094861,4162192258,8305,비가맹
34,양쌤학원,"(입시학원,보습학원/입시학원,보습학원)",경기도 용인시 수지구 상현동 252번지,37.30608423,127.0846797,1149665076,7201,비가맹
35,수담수학전문학원,"(입시학원,보습학원/입시학원,보습학원)",경기도 용인시 수지구 상현동 259번지,37.30737593,127.0854513,8149100955,7201,비가맹
36,풍덕매스피아학원,"(입시학원,보습학원/입시학원,보습학원)",경기도 용인시 수지구 풍덕천동 1047-1번지,37.31994,127.0876621,1429000455,7201,비가맹
37,장앤박학습코칭학원,"(입시학원,보습학원/입시학원,보습학원)",경기도 용인시 수지구 신봉동 33번지,37.32317795,127.0779942,7509300301,7201,비가맹
38,동양슈퍼,(슈퍼마켓.마트/슈퍼마켓.마트),경기도 용인시 수지구 풍덕천동 690번지,37.32887043,127.0921961,1420114784,5201,비가맹
39,뮤엠영어 광교상현점,(기타교육.교습.학원/기타교육.교습.학원),경기도 용인시 수지구 상현동 1134번지 광교자이더클래스,37.29807662,127.0711276,6739802079,7213,비가맹
40,마마몽떼 수지성복,(기타교육.교습.학원/기타교육.교습.학원),경기도 용인시 수지구 성복동 752번지 성동마을수지자이아파트,37.32166424,127.068172,4723901053,7213,비가맹
41,수지SK나이츠 농구교실,(기타교육.교습.학원/기타교육.교습.학원),경기도 용인시 수지구 동천동 610-2번지,37.34332886,127.0644352,8380101468,7213,비가맹
42,아그레헤어,(미용실(두발전문)/미용실(두발전문)),경기도 용인시 수지구 상현동 257-32번지,37.30825614,127.0845549,1111270279,1602,비가맹
43,헤어토픽,(미용실(두발전문)/미용실(두발전문)),경기도 용인시 수지구 풍덕천1동 664 삼익아파트 상가-109,37.33295005,127.0963846,1080381031,1602,가맹
44,태후사랑죽전1호점,(미용실(두발전문)/미용실(두발전문)),경기도 용인시 수지구 죽전동 1205-3번지,37.33150877,127.1212036,4522600351,1602,비가맹
45,더웰헤어,(미용실(두발전문)/미용실(두발전문)),경기도 용인시 수지구 죽전동 465-1번지,37.32834801,127.1138035,1481200362,1602,비가맹
46,호치킨 죽전점,(치킨전문점/치킨전문점),경기도 용인시 수지구 죽전동 1190-5번지,37.33124948,127.1275488,2157500274,2309,비가맹
47,푸라닭용인풍덕천1호점,(치킨전문점/치킨전문점),경기도 용인시 수지구 풍덕천동 29-10번지,37.3268116,127.0963836,4711800982,2309,비가맹
48,그림그리는고양이미술교습소,(기타교육.교습.학원/기타교육.교습.학원),경기도 용인시 수지구 신봉동 43-3번지,37.3240163,127.0780121,6149798905,7213,비가맹
49,꿀꿀문방구,"(문구,사무용품/문구,사무용품)",경기도 용인시 수지구 신봉동 959번지 신봉마을용인신봉센트레빌1단지,37.32836884,127.0701767,5251302230,8102,비가맹
50,(주) 우리투어,(여행사/여행사),경기도 용인시 수지구 성복동 69-1번지,37.31250722,127.0784714,1428158708,6201,비가맹
51,소망헤어,(미용실(두발전문)/미용실(두발전문)),경기도 용인시 수지구 상현동 838번지,37.30417061,127.0813615,8381800531,1602,비가맹
52,JK서울안과의원,(안과/안과),경기도 용인시 수지구 상현동 1131-6번지,37.29710658,127.0695987,7079500183,4207,비가맹
53,현내과,(내과/내과),경기도 용인시 수지구 성복동 89번지,37.31341877,127.0787936,1429037364,4202,비가맹
54,광교미소모아내과의원,(내과/내과),경기도 용인시 수지구 상현동 1117-7번지,37.296959,127.0686743,8966000031,4202,비가맹
55,메가엠지씨커피 수지신정마을점,(커피전문점/커피전문점),경기도 용인시 수지구 풍덕천동 1051-1번지,37.31921213,127.0883094,2182269806,2502,비가맹
56,리드인독서논술광교상현역점학원,"(입시학원,보습학원/입시학원,보습학원)",경기도 용인시 수지구 상현동 1131-3번지,37.29767502,127.0697534,2279850010,7201,비가맹
57,에스플러스영어학원,"(입시학원,보습학원/입시학원,보습학원)",경기도 용인시 수지구 신봉동 40-2번지,37.32362315,127.0764567,1609201887,7201,비가맹
58,수능플러스학원,"(입시학원,보습학원/입시학원,보습학원)",경기도 용인시 수지구 풍덕천동 1051-1번지,37.31921213,127.0883094,1429041437,7201,비가맹
59,인생펍,(일반음식점/일반음식점),경기도 용인시 수지구 상현동 1131-8번지,37.29656527,127.0694664,7730301016,2301,비가맹
60,카페피콜로(cafepiccol,(식음료(기타)/식음료(기타)),경기도 용인시 수지구 동천동 899번지,37.33825017,127.101696,1111900340,2310,비가맹
61,천석꾼,(식음료(기타)/식음료(기타)),경기도 용인시 수지구 동천동 935번지 한빛마을래미안이스트팰리스1단지,37.33693042,127.0874564,7967200049,2310,비가맹
62,쉘위스파,(피부.체형미관리/피부.체형미관리),경기도 용인시 수지구 상현동 1220번지,37.30030383,127.0713407,1111462166,1701,비가맹
63,지오송지오(죽전),"(기타레저,스포츠용품/기타레저,스포츠용품)",경기도 용인시 수지구 죽전동 1003-53번지,37.32876178,127.1080559,5482300781,8105,비가맹
64,독도참치,(일식전문점/일식전문점),경기도 용인시 수지구 신봉동 39번지,37.32359036,127.0773711,1420242496,2303,비가맹
65,스시와쿠,(일식전문점/일식전문점),경기도 용인시 수지구 죽전동 1188-1번지,37.33195808,127.126439,2441901561,2303,비가맹
66,베스트조명,(기타건축자재/기타건축자재),경기도 용인시 수지구 상현동 851번지,37.30485094,127.0851379,6861201053,3403,비가맹
67,(주)우우,(일반음식점/일반음식점),경기도 용인시 수지구 풍덕천동 724-2번지,37.32216797,127.098598,6618703249,2301,비가맹
68,갈속집,(일반음식점/일반음식점),경기도 용인시 수지구 동천동 325-478번지,37.33790245,127.0974983,3510501085,2301,가맹
69,서울소바,(일반음식점/일반음식점),경기도 용인시 수지구 풍덕천동 1091-9번지,37.32047618,127.0941376,2253200726,2301,비가맹
70,바다양푼이 동태탕 찜,(일반음식점/일반음식점),경기도 용인시 수지구 죽전동 1175-7번지,37.33187355,127.1197117,1510201408,2301,비가맹
71,삼일차사랑,(세차장/세차장),경기도 용인시 수지구 풍덕천동 55번지,37.33064063,127.1011492,4142301056,6702,비가맹
72,더(THE)리듬음악학원,(예체능계열학원/예체능계열학원),경기도 용인시 수지구 성복동 278-1번지,37.31680607,127.0682562,3789401390,7205,비가맹
73,디어필립,(제과.제빵/제과.제빵),경기도 용인시 수지구 풍덕천동 1080-16번지,37.32173918,127.0944468,1420651635,2501,비가맹
74,뚜레쥬르 수지구청역점,(제과.제빵/제과.제빵),경기도 용인시 수지구 풍덕천동 1070-5번지,37.32244801,127.0934949,1312380044,2501,비가맹
75,씨투C2베이커리,(제과.제빵/제과.제빵),경기도 용인시 수지구 성복동 289-6번지,37.31779827,127.0684424,2623100543,2501,비가맹
76,니나 베이커리,(제과.제빵/제과.제빵),경기도 용인시 수지구 신봉동 1034번지 수지스카이뷰푸르지오,37.32653779,127.0698372,4630402532,2501,비가맹
77,호야 쪽갈비,(일반음식점/일반음식점),경기도 용인시 수지구 신봉동 973번지,37.32709397,127.0691003,6692101900,2301,비가맹
78,숲속의작은집,(일반음식점/일반음식점),경기도 용인시 수지구 신봉동 765번지,37.33352228,127.0430552,5710800599,2301,비가맹
79,신전떡볶이 수지동천점,(일반음식점/일반음식점),경기도 용인시 수지구 동천동 282번지,37.33328155,127.0931657,6021496503,2301,가맹
80,잘만든치킨 굿킨,(치킨전문점/치킨전문점),경기도 용인시 수지구 풍덕천동 1049-1번지,37.31968797,127.0877651,1540603039,2309,비가맹
81,그린케어,(기타가정.주방용품/기타가정.주방용품),경기도 용인시 수지구 죽전동 465-1번지,37.32834801,127.1138035,8090501212,3302,비가맹
82,큐사랑 상현점,(기타가정.주방용품/기타가정.주방용품),경기도 용인시 수지구 상현동 850번지,37.307088,127.0855995,2781501533,3302,비가맹
83,인쌩맥주 용인성복역점,(일반음식점/일반음식점),경기도 용인시 수지구 성복동 89번지,37.31341877,127.0787936,2352700113,2301,비가맹
84,떳다치킨,(일반음식점/일반음식점),경기도 용인시 수지구 상현동 108-1번지 대진아파트,37.30866958,127.0765857,1420349889,2301,비가맹
85,취향존중 연구소,(기타교육.교습.학원/기타교육.교습.학원),경기도 용인시 수지구 성복동 741번지 푸른마을푸르지오,37.31590655,127.0787797,8200602345,7213,비가맹
86,진쌤 수학교실,(기타교육.교습.학원/기타교육.교습.학원),경기도 용인시 수지구 신봉동 1025번지 힐스테이트광교산,37.33352981,127.0690862,4369301554,7213,비가맹
87,꿈꾸는공방,(기타교육.교습.학원/기타교육.교습.학원),경기도 용인시 수지구 죽전동 1245-6번지,37.32675095,127.1188684,7405500506,7213,비가맹
88,더좋은e해법수학앤셀파수학학원,(기타교육.교습.학원/기타교육.교습.학원),경기도 용인시 수지구 죽전동 1190-1번지,37.33148042,127.126464,1099310414,7213,비가맹
89,용짜장,(중식전문점/중식전문점),경기도 용인시 수지구 죽전동 1175-9번지,37.33191974,127.1200614,7631600908,2302,비가맹
90,비타민야채가게,"(농산물,청과물/농산물,청과물)",경기도 용인시 수지구 성복동 409-1번지,37.31993867,127.0622001,7529600083,2104,비가맹
91,열쩡건어물,"(수산물,건어물/수산물,건어물)",경기도 용인시 수지구 죽전동 832-1번지 용인수지벽산타운2단지,37.33572988,127.1054572,2039977155,2103,비가맹
92,사롱메이드,(일반음식점/일반음식점),경기도 용인시 수지구 풍덕천동 728-9번지,37.32367246,127.098353,3781401156,2301,비가맹
93,일품족발,(일반음식점/일반음식점),경기도 용인시 수지구 동천동 873-4번지,37.33566194,127.0933786,1420662414,2301,비가맹
94,응응스크르용인수지점,(편의점/편의점),경기도 용인시 수지구 동천동 864번지 수진마을써니밸리아파트 301(상가)동 1층 102호,37.33635739,127.0937812,4837400303,5202,비가맹
95,푸쉬파요가 스튜디오 평생교육원,(기타교육.교습.학원/기타교육.교습.학원),경기도 용인시 수지구 죽전동 1176-3번지,37.33197752,127.1212125,3679801312,7213,비가맹
96,소루 에너지테라비,(피부.체형미관리/피부.체형미관리),경기도 용인시 수지구 죽전동 1257-1번지,37.32718924,127.1178164,7682901464,1701,비가맹
97,라보빈,(침구및수예품/침구및수예품),경기도 용인시 수지구 신봉동 639번지,37.33355933,127.0527517,7623000099,1202,비가맹
98,(주) 와라,(시계.귀금속/시계.귀금속),경기도 용인시 수지구 죽전동 1189-2번지,37.33196177,127.1247571,1428158066,1402,비가맹
99,부자(BUJA)김밥,(일반음식점/일반음식점),경기도 용인시 수지구 죽전동 589-24번지,37.33330722,127.1115317,8240203431,2301,비가맹
100,피자먹다 죽전점,(일반음식점/일반음식점),경기도 용인시 수지구 죽전동 1177-3번지,37.33195437,127.1224317,5153748841,2301,비가맹
101,동일동물병원,(동물병원/동물병원),경기도 용인시 수지구 동천동 946-4번지,37.33588699,127.0906794,1420838728,8115,비가맹
102,꿀떡곱창죽전점(주),(일반음식점/일반음식점),경기도 용인시 수지구 죽전동 1178-1번지,37.33224623,127.1235027,4778102100,2301,비가맹
103,장수찬,(기타식음료품/기타식음료품),경기도 용인시 수지구 풍덕천동 1075-1번지,37.3223773,127.0939016,8076800584,2105,비가맹
104,참두부집,(기타식음료품/기타식음료품),경기도 용인시 수지구 상현동 251 SR프라자 B1층 107호,,,1420341816,2105,비가맹
105,두부장수,(기타식음료품/기타식음료품),경기도 용인시 수지구 성복동 89번지,37.31341877,127.0787936,1429148612,2105,가맹
106,헤어망고(죽전점),(미용실(두발전문)/미용실(두발전문)),경기도 용인시 수지구 죽전동 484-4번지,37.32832333,127.114526,7680103605,1602,비가맹
107,지니살롱 수지 신봉점,(미용실(두발전문)/미용실(두발전문)),경기도 용인시 수지구 신봉동 938-4번지,37.32947871,127.0704977,8211202510,1602,가맹
108,엘엔에이치(L&H),(일반의류/일반의류),경기도 용인시 수지구 상현동 257-22번지,37.30785998,127.0846813,1293184493,1106,비가맹
109,프리_덤콕,(일반의류/일반의류),경기도 용인시 수지구 성복동 33-1번지,37.31074141,127.0812686,6563500464,1106,비가맹
110,온피아노플레잉음악교습소,(기타교육.교습.학원/기타교육.교습.학원),경기도 용인시 수지구 신봉동 870번지 신봉마을엘지빌리지5차,37.32596094,127.072335,7599801374,7213,비가맹
111,민선생사회교습소,(기타교육.교습.학원/기타교육.교습.학원),경기도 용인시 수지구 풍덕천동 700-1번지,37.32695281,127.0955024,2109567676,7213,비가맹
112,메이영어(May's English)학원,(기타교육.교습.학원/기타교육.교습.학원),경기도 용인시 수지구 죽전동 1190-1번지,37.33148042,127.126464,8399701464,7213,비가맹
113,파리바게뜨죽전현대점,(제과.제빵/제과.제빵),경기도 용인시 수지구 죽전동 1191-3번지,37.33149406,127.1250755,7237600296,2501,비가맹
114,민재자전거(MJBIKE),(자전거/자전거),경기도 용인시 수지구 죽전동 1080-5번지,37.33021622,127.1117621,2272016463,8106,비가맹
115,우리손세차장,(세차장/세차장),경기도 용인시 수지구 성복동 515번지,37.31923293,127.0590553,5971102319,6702,비가맹
116,(주)에스제이비,(주차장.폐차장/주차장.폐차장),경기도 용인시 수지구 죽전동 1492번지 용인죽전효성해링턴플레이스,37.33124529,127.1094766,8858701283,6701,비가맹
117,카페실로,(일반음식점/일반음식점),경기도 용인시 수지구 죽전동 1003-526번지,37.32963488,127.1049698,3463800286,2301,비가맹
118,이우자동차정비공업사,(자동차정비/자동차정비),경기도 용인시 수지구 죽전동 1253-2번지,37.32926893,127.1170383,1291234779,6502,비가맹
119,소리엘피아노교습소,(기타교육.교습.학원/기타교육.교습.학원),경기도 용인시 수지구 동천동 864번지 수진마을써니밸리아파트 301상가동 204호,37.33635739,127.0937812,3469400638,7213,비가맹
120,글샘국어논술교습소,(기타교육.교습.학원/기타교육.교습.학원),경기도 용인시 수지구 풍덕천동 1183번지 정자뜰마을태영데시앙1차아파트,37.31510724,127.0821473,1829101522,7213,비가맹
121,아뜨리에미술교습소,(기타교육.교습.학원/기타교육.교습.학원),경기도 용인시 수지구 풍덕천동 663-1번지,37.32969363,127.0930495,1429150665,7213,비가맹
122,참새분식,(일반음식점/일반음식점),경기도 용인시 수지구 풍덕천동 664번지,37.33295005,127.0963846,1420234977,2301,비가맹
123,카페만월경 수지초입마을점,(기타식음료품/기타식음료품),경기도 용인시 수지구 풍덕천동 664번지,37.33295005,127.0963846,4174301179,2105,비가맹
124,구돌씨커피,(기타식음료품/기타식음료품),경기도 용인시 수지구 신봉동 985번지 신봉마을동일하이빌3단지,37.32615765,127.0669385,2064863037,2105,가맹
125,몽실,(미용실(두발전문)/미용실(두발전문)),경기도 용인시 수지구 풍덕천동 1209번지 e편한세상수지,37.31534654,127.0861185,1442800584,1602,비가맹
126,젬마,(일반의류/일반의류),경기도 용인시 수지구 상현1동 827 금호베스트빌상가 건물계단및 부속상가,,,1420143106,1106,비가맹
127,마담포라,(일반의류/일반의류),경기도 용인시 수지구 풍덕천동 1082-10번지,37.32130961,127.0953521,1420422062,1106,비가맹
128,풀잎린넨,(일반의류/일반의류),경기도 용인시 수지구 성복동 162-2번지,37.31547945,127.0752948,2054382924,1106,비가맹
129,커피올댓팩토리,(커피전문점/커피전문점),경기도 용인시 수지구 풍덕천동 1180번지,37.31519804,127.0953058,1420902678,2502,비가맹
130,현대프리모피아노교습소,(기타교육.교습.학원/기타교육.교습.학원),경기도 용인시 수지구 풍덕천동 700-1번지,37.32695281,127.0955024,1429132008,7213,비가맹
131,아마빌레음악학원,(예체능계열학원/예체능계열학원),경기도 용인시 수지구 죽전동 488번지 죽전퍼스트하임,37.3293513,127.1146449,3079604410,7205,비가맹
132,우리맘정신건강의학과,(신경정신과/신경정신과),경기도 용인시 수지구 상현동 1131-6번지,37.29710658,127.0695987,8829100190,4203,비가맹
133,마디통신경과의원,(신경정신과/신경정신과),경기도 용인시 수지구 신봉동 23-1번지,37.3228803,127.0779394,5119656521,4203,비가맹
134,서울앤탑동물병원,(동물병원/동물병원),경기도 용인시 수지구 죽전동 1189-1번지,37.33196069,127.1244184,8860901333,8115,비가맹
135,길동석이비인후과,(기타의료업/기타의료업),경기도 용인시 수지구 풍덕천동 1080-6번지,37.32224518,127.0948053,1269606385,4211,비가맹
136,링키영어신봉힐스홈,(기타교육.교습.학원/기타교육.교습.학원),경기도 용인시 수지구 신봉동 1025번지 힐스테이트광교산,37.33352981,127.0690862,2759101858,7213,비가맹
137,체크앤도트 용인,(아동.유아복/아동.유아복),경기도 용인시 수지구 성복동 168-10번지 성복역서희스타힐스,37.31568138,127.0712985,1870303270,1104,비가맹
138,몽트라슈,"(애완동물,용품(수족관)/애완동물,용품(수족관))",경기도 용인시 수지구 신봉동 945번지,37.32883508,127.0719801,4523700833,8111,비가맹
139,워리워리,"(애완동물,용품(수족관)/애완동물,용품(수족관))",경기도 용인시 수지구 성복동 33-1번지,37.31074141,127.0812686,2730402394,8111,비가맹
140,공간인테리어,(기타상품판매점/기타상품판매점),경기도 용인시 수지구 죽전동 1003-8 현암마을동성@제상가동제1층 102,37.32854062,127.1093213,1351293695,8112,비가맹
141,베스트영어학원,"(입시학원,보습학원/입시학원,보습학원)",경기도 용인시 수지구 신봉동 964-1번지,37.32836951,127.0678853,6039413768,7201,비가맹
142,성원반찬,(식음료(기타)/식음료(기타)),경기도 용인시 수지구 상현동 30번지 성원상떼빌아파트 상가2동 비09호,37.31414382,127.0927948,2522101207,2310,비가맹
143,이마트24 광교우미뉴브점,(편의점/편의점),경기도 용인시 수지구 상현동 1220번지,37.30030383,127.0713407,2037726896,5202,비가맹
144,GS25 수지원희점,(편의점/편의점),경기도 용인시 수지구 상현동 254-14번지,37.30676003,127.0846083,1420751234,5202,비가맹
145,이안salon,(미용실(두발전문)/미용실(두발전문)),경기도 용인시 수지구 동천동 938번지 한빛마을래미안이스트팰리스2단지,37.3357563,127.0893819,8760501435,1602,비가맹
146,SG미용실,(미용실(두발전문)/미용실(두발전문)),경기도 용인시 수지구 풍덕천동 1093-1번지,37.32141971,127.093286,1140490930,1602,비가맹
147,망고잉글리시,(기타교육.교습.학원/기타교육.교습.학원),경기도 용인시 수지구 풍덕천동 1223번지 수지파크푸르지오,37.32676466,127.0984833,3399401885,7213,비가맹
148,진국어교습소,(기타교육.교습.학원/기타교육.교습.학원),경기도 용인시 수지구 상현동 1158-12번지,37.29664908,127.0802523,1429701808,7213,비가맹
149,와이지(YG)몰입형 스터디카페 용인죽전점,(기타교육.교습.학원/기타교육.교습.학원),경기도 용인시 수지구 죽전동 1189-3번지,37.33198094,127.1251182,5112758974,7213,비가맹
150,(주)고기리5,(일반음식점/일반음식점),경기도 용인시 수지구 고기동 565-1번지,37.36104154,127.0384279,2568102217,2301,비가맹
151,땡스기빙(TthangsGiving),(일반음식점/일반음식점),경기도 용인시 수지구 풍덕천동 683번지,37.33142596,127.1014837,6740901249,2301,비가맹
152,마미떡(수지구청역점),(일반음식점/일반음식점),경기도 용인시 수지구 풍덕천동 711번지,37.32405109,127.0957211,4912301223,2301,비가맹
153,덕뽀리죽전점,(일반음식점/일반음식점),경기도 용인시 수지구 죽전동 484-14번지,37.32800818,127.1146292,1043950874,2301,비가맹
154,응응스크르 수지2호점,(편의점/편의점),경기도 용인시 수지구 동천동 282-7번지,37.33227252,127.0933178,2891501358,5202,비가맹
155,지에스25 용인수지고,(편의점/편의점),경기도 용인시 수지구 풍덕천동 663-1번지,37.32969363,127.0930495,4071195475,5202,비가맹
156,고씨4대명가,(일반음식점/일반음식점),경기도 용인시 수지구 동천동 177-28번지,37.34239757,127.1020015,8616200359,2301,비가맹
157,이리식당,(일반음식점/일반음식점),경기도 용인시 수지구 동천동 371,,,1352101464,2301,비가맹
158,고수찜닭,(일반음식점/일반음식점),경기도 용인시 수지구 죽전동 1339-10번지,37.32444578,127.1252572,1420682064,2301,비가맹
159,(주) 뉴코어,(골프연습장/골프연습장),경기도 용인시 수지구 죽전동 876-6번지,37.33290038,127.1084295,3688103275,8309,비가맹
160,골프선수촌,(골프연습장/골프연습장),경기도 용인시 수지구 상현동 1119번지,37.29914085,127.0688085,1810402794,8309,비가맹
161,제이(J)스크린골프,(골프연습장/골프연습장),경기도 용인시 수지구 동천동 942-1번지,37.33757797,127.0922394,1437700288,8309,비가맹
162,PGA골프연습장,(골프연습장/골프연습장),경기도 용인시 수지구 풍덕천동 705-4번지,37.32516032,127.0958732,5670700308,8309,비가맹
163,래래차이니즈,(중식전문점/중식전문점),경기도 용인시 수지구 상현동 1117-7번지,37.296959,127.0686743,7812100521,2302,비가맹
164,연세바른신경외과의원,(신경정신과/신경정신과),경기도 용인시 수지구 성복동 74번지,37.31392771,127.0799644,6259300704,4203,비가맹
165,1357쭈꾸미전문,(일반음식점/일반음식점),경기도 용인시 수지구 죽전동 1325-7번지,37.32335951,127.1238066,1420609398,2301,비가맹
166,벽오동,(일반음식점/일반음식점),경기도 용인시 수지구 상현동 66-2번지,37.30946897,127.0859702,7473400220,2301,비가맹
167,노송가구씰리침대용인수지점,(가구판매점/가구판매점),경기도 용인시 수지구 동천동 387-6,37.33960874,127.0956378,1420352443,3301,비가맹
168,에이원카피,(판촉물.인쇄.복사/판촉물.인쇄.복사),경기도 용인시 수지구 죽전동 1335-3번지,37.32403058,127.1250787,1420909123,9402,비가맹
169,알파용인신봉점,"(문구,사무용품/문구,사무용품)",경기도 용인시 수지구 신봉동 31번지,37.32332889,127.07735,1282796970,8102,비가맹
170,요즘집밥,(일반음식점/일반음식점),경기도 용인시 수지구 상현동 1220번지,37.30030383,127.0713407,2420402430,2301,비가맹
171,장호덕손만두,(일반음식점/일반음식점),경기도 용인시 수지구 신봉동 873번지 신봉마을엘지자이1차아파트,37.32581332,127.0789276,3331801641,2301,비가맹
172,토닥토닥,(일반음식점/일반음식점),경기도 용인시 수지구 풍덕천동 716-16번지,37.32444906,127.0987665,4322900659,2301,비가맹
173,가윤 인테리어,(기타전문서비스/기타전문서비스),경기도 용인시 수지구 상현동 850번지,37.307088,127.0855995,1420845267,9511,비가맹
174,해법에듀 용인지사,(기타서비스/기타서비스),경기도 용인시 수지구 동천동 873-4번지,37.33566194,127.0933786,1352089347,9602,비가맹
175,수지실버주야간보호센터,(기타서비스/기타서비스),경기도 용인시 수지구 신봉동 141-5번지,37.32765808,127.0730365,2258012427,9602,비가맹
176,버터살롱,(일반음식점/일반음식점),경기도 용인시 수지구 동천동 932번지 한빛마을래미안이스트팰리스3단지,37.33465432,127.0887218,8242201595,2301,비가맹
177,누에바 파밀리아웨딩 뷔페,(뷔페/출장연회/뷔페/출장연회),경기도 용인시 수지구 신봉동 642-14번지,37.33343878,127.0518606,2901402025,2402,비가맹
178,준1대1PT헬스,(헬스클럽/헬스클럽),경기도 용인시 수지구 상현동 1번지 성복역리버파크,37.31386747,127.088474,3972800854,8305,비가맹
179,온유헬스케어,(헬스클럽/헬스클럽),경기도 용인시 수지구 동천동 935번지 한빛마을래미안이스트팰리스1단지,37.33693042,127.0874564,7230501989,8305,비가맹
180,챠오벨라,(화원.화초/화원.화초),경기도 용인시 수지구 신봉동 942-2번지,37.32896033,127.0717197,6379501340,8110,비가맹
181,하늘정원,(화원.화초/화원.화초),경기도 용인시 수지구 죽전동 452-6번지,37.32716423,127.1128952,1429007609,8110,비가맹
182,마리앙또꽃,(화원.화초/화원.화초),경기도 용인시 수지구 신봉동 105-8번지,37.32472994,127.0734142,6969301781,8110,비가맹
183,커피사이로(COFFEESA,(커피전문점/커피전문점),경기도 용인시 수지구 죽전동 1177-3번지,37.33195437,127.1224317,1420774668,2502,비가맹
184,라리 리듬스쿨,(기타취미.레저.스포츠/기타취미.레저.스포츠),경기도 용인시 수지구 동천동 886-1번지,37.33426072,127.0974613,5530800645,8310,가맹
185,한우마당정육,(일반음식점/일반음식점),경기도 용인시 수지구 풍덕천동 724번지,37.32242853,127.0983483,1420156479,2301,비가맹
186,봉급날 풍덕천점,(일반음식점/일반음식점),경기도 용인시 수지구 풍덕천동 662-3번지,37.33333332,127.0951183,2021477892,2301,비가맹
187,수지 이(e)맛 국수.비빔밥,(일반음식점/일반음식점),경기도 용인시 수지구 신봉동 899번지,37.32059457,127.0841033,2012263954,2301,비가맹
188,수지블라인드design,(커튼.카펫.수건/커튼.카펫.수건),경기도 용인시 수지구 풍덕천동 743-1번지,37.3264607,127.1018937,3340201473,1201,비가맹
189,빛을담다빛담 커튼블라인드전문점,(커튼.카펫.수건/커튼.카펫.수건),경기도 용인시 수지구 죽전동 1118번지 대지마을현대홈타운3차2단지,37.33252472,127.1148093,8585900498,1201,비가맹
190,해림자동차공업사,(자동차정비/자동차정비),경기도 용인시 수지구 상현동 480-2,,,1352960061,6502,비가맹
191,애니카랜드죽전점,(자동차정비/자동차정비),"경기도 용인시 수지구 죽전2동 551-2,3",37.33085764,127.112199,1350644397,6502,비가맹
192,행복모터스,(자동차정비/자동차정비),경기도 용인시 수지구 풍덕천동 85-13번지,37.32295988,127.1008738,5850701926,6502,비가맹
193,도미노피자수지점,(패스트푸드점/패스트푸드점),경기도 용인시 수지구 풍덕천동 684번지,37.33104738,127.1014857,2515700354,2307,가맹
194,피자스쿨,(패스트푸드점/패스트푸드점),경기도 용인시 수지구 풍덕천동 1075-1번지,37.3223773,127.0939016,3700400192,2307,비가맹
195,맘스터치 피자앤치킨 용인성북점,(패스트푸드점/패스트푸드점),경기도 용인시 수지구 성복동 33-5번지,37.31071617,127.0817766,7624400849,2307,비가맹
196,치어스,(일반주점/일반주점),경기도 용인시 수지구 동천동 887번지,37.33354772,127.0971942,1420351046,2601,비가맹
197,한스 잉글리쉬,(기타교육.교습.학원/기타교육.교습.학원),경기도 용인시 수지구 풍덕천동 239-3번지,37.31565848,127.0876855,8889401859,7213,비가맹
198,워시스토리셀프빨래방수지유타워점,(세탁업/세탁업),경기도 용인시 수지구 동천동 899번지,37.33825017,127.101696,8571500905,1301,비가맹
199,카페보니(cafe bonnie),(일반음식점/일반음식점),경기도 용인시 수지구 죽전동 1190-5번지,37.33124948,127.1275488,4011239109,2301,비가맹
200,그림공간미술교습소,(기타교육.교습.학원/기타교육.교습.학원),경기도 용인시 수지구 상현동 1130번지,37.29784324,127.0738933,7399901682,7213,가맹
201,약손,(화장품/화장품),경기도 용인시 수지구 동천동 282번지,37.33328155,127.0931657,8210501527,1501,가맹
202,탑스칼프 용인점,(화장품/화장품),경기도 용인시 수지구 상현동 1131-6번지,37.29710658,127.0695987,7254200787,1501,비가맹
203,쿡스매쓰(Kooks Math)수학학원,"(입시학원,보습학원/입시학원,보습학원)",경기도 용인시 수지구 상현동 254-9번지,37.30721889,127.0843688,1779101670,7201,비가맹
204,상현수치과의원,(치과/치과),경기도 용인시 수지구 상현동 832번지,37.3040072,127.0810352,1289063551,4201,비가맹
205,인치과의원,(치과/치과),경기도 용인시 수지구 풍덕천동 1080-1번지,37.32183713,127.0940964,1359082008,4201,비가맹
206,이에꼴미술교습소,(예체능계열학원/예체능계열학원),경기도 용인시 수지구 죽전동 832번지,37.33614115,127.1044503,1429041683,7205,비가맹
207,로뎀음악학원,(예체능계열학원/예체능계열학원),경기도 용인시 수지구 동천동 174-9번지,37.34030483,127.0962324,6929800937,7205,비가맹
208,오즈피아노,(예체능계열학원/예체능계열학원),경기도 용인시 수지구 죽전동 1216번지,37.33014409,127.1229036,1429048992,7205,비가맹
209,뮤엠영어동천자이점,(기타교육.교습.학원/기타교육.교습.학원),경기도 용인시 수지구 동천동 105-3번지 동천자이아파트,37.34588402,127.0908735,7429600621,7213,비가맹
210,이디야(용인성복느티나무)점,(커피전문점/커피전문점),경기도 용인시 수지구 성복동 168-10번지 성복역서희스타힐스,37.31568138,127.0712985,3751402215,2502,비가맹
211,고래별장 수지본점,(치킨전문점/치킨전문점),경기도 용인시 수지구 성복동 168-10번지 성복역서희스타힐스,37.31568138,127.0712985,5220602096,2309,비가맹
212,네네치킨풍덕천점,(치킨전문점/치킨전문점),경기도 용인시 수지구 풍덕천동 730-13번지,37.32574527,127.1009042,2170246777,2309,가맹
213,영삼이네 우정소갈비 수지구청점,(일반음식점/일반음식점),경기도 용인시 수지구 풍덕천동 708번지,37.32445517,127.0952675,5455500838,2301,비가맹
214,화로육 본점,(일반음식점/일반음식점),경기도 용인시 수지구 죽전동 1206-2번지,37.33144169,127.1199622,4437800623,2301,비가맹
215,파스쿠찌수지성복점,(커피전문점/커피전문점),경기도 용인시 수지구 성복동 401번지,37.319583,127.0610848,1420702562,2502,비가맹
216,앙로베,(커피전문점/커피전문점),경기도 용인시 수지구 신봉동 23-1번지,37.3228803,127.0779394,2111940808,2502,비가맹
217,메가엠지씨커피 수지동천중앙점,(커피전문점/커피전문점),경기도 용인시 수지구 동천동 946-4번지,37.33588699,127.0906794,4220801957,2502,비가맹
218,꿈꾸는 그림책,(기타교육.교습.학원/기타교육.교습.학원),경기도 용인시 수지구 상현동 828번지 광교쌍용포레듀엔,37.30171099,127.0766247,1899301978,7213,비가맹
219,밥사랑,(일반음식점/일반음식점),경기도 용인시 수지구 풍덕천동 730-10번지,37.32553677,127.1005554,1294500544,2301,비가맹
220,유한F앤B,(일반음식점/일반음식점),경기도 용인시 수지구 풍덕천동 698-2번지,37.32496287,127.0934927,7656500163,2301,비가맹
221,브라우니70 수지동천점,(일반음식점/일반음식점),경기도 용인시 수지구 동천동 282-5번지,37.33256088,127.0932937,8200500374,2301,비가맹
222,인뎁스학원,"(입시학원,보습학원/입시학원,보습학원)",경기도 용인시 수지구 동천동 174-26번지,37.34073796,127.0990185,4489001162,7201,비가맹
223,곰수학학원,"(입시학원,보습학원/입시학원,보습학원)",경기도 용인시 수지구 죽전동 1261번지,37.32639008,127.1187686,3279600306,7201,비가맹
224,효자태권도장,(무수도장 등(학원)/무수도장 등(학원)),경기도 용인시 수지구 성복동 278-1번지,37.31680607,127.0682562,1429098018,7204,비가맹
225,루시펫살롱,"(애완동물,용품(수족관)/애완동물,용품(수족관))",경기도 용인시 수지구 풍덕천동 1027번지,37.3184103,127.0858421,5611102168,8111,비가맹
226,해피스누펫,"(애완동물,용품(수족관)/애완동물,용품(수족관))",경기도 용인시 수지구 성복동 723번지 성남마을벽산첼시빌2차아파트,37.31417267,127.0654273,8760101382,8111,비가맹
227,엘지자이마트,(슈퍼마켓.마트/슈퍼마켓.마트),경기도 용인시 수지구 상현동 869번지,37.30364719,127.088902,1420298383,5201,비가맹
228,아모레카운셀러,(통신.방문판매/통신.방문판매),경기도 용인시 수지구 풍덕천동 714-5번지,37.32431807,127.0973563,1420426073,5602,가맹
229,식사시간,(일반음식점/일반음식점),경기도 용인시 수지구 풍덕천동 731-5번지,37.3258812,127.1011179,8623801244,2301,비가맹
230,대치정육점,"(축산물,정육점/축산물,정육점)",경기도 용인시 수지구 동천동 88-13번지,37.34712999,127.0888683,7749101656,2102,비가맹
231,바우축산,"(축산물,정육점/축산물,정육점)",경기도 용인시 수지구 죽전동 1188-5번지,37.33188953,127.1275682,1439501850,2102,가맹
232,에그카페24 수지구청점,(기타식음료품/기타식음료품),경기도 용인시 수지구 풍덕천동 718-5번지,37.32356843,127.0969201,6112202042,2105,비가맹
233,이지(EZ) 영어전문학원,(외국어학원/외국어학원),경기도 용인시 수지구 죽전동 832-1번지 용인수지벽산타운2단지,37.33572988,127.1054572,1359110059,7202,비가맹
234,휘슬어학원,(외국어학원/외국어학원),경기도 용인시 수지구 상현동 254-14번지,37.30676003,127.0846083,1429018668,7202,비가맹
235,제2캠퍼스 KNK영어학원,(외국어학원/외국어학원),경기도 용인시 수지구 상현동 252번지,37.30608423,127.0846797,1289729101,7202,비가맹
236,더바른정국밥 수지점,(일반음식점/일반음식점),경기도 용인시 수지구 죽전동 1115번지,37.32905862,127.1161138,2881100912,2301,비가맹
237,성복동집 동천직영점,(일반음식점/일반음식점),경기도 용인시 수지구 동천동 325-707번지,37.3392837,127.1007874,1685400707,2301,비가맹
238,위스키볼트,(일반음식점/일반음식점),경기도 용인시 수지구 성복동 67-6번지,37.31267428,127.0798247,8015100725,2301,비가맹
239,작은나무숲 공동육아 조합,(기타서비스/기타서비스),경기도 용인시 수지구 신봉동 241-9번지,37.33036404,127.0685624,2298267137,9602,비가맹
240,비에이엔터테인먼트,(기타서비스/기타서비스),경기도 용인시 수지구 성복동 33-1번지,37.31074141,127.0812686,5871101176,9602,비가맹
241,죽전바퀴달린그림책플러스학원,"(입시학원,보습학원/입시학원,보습학원)",경기도 용인시 수지구 죽전동 1178-2번지,37.33199395,127.1235378,2619600229,7201,비가맹
242,홍샘수학프리미엄학원,"(입시학원,보습학원/입시학원,보습학원)",경기도 용인시 수지구 성복동 97-14번지,37.31553597,127.0759716,7159401376,7201,비가맹
243,맹드라이브운전면허수지상현점,(자동차운전학원/자동차운전학원),경기도 용인시 수지구 상현동 66-2번지,37.30946897,127.0859702,6428801631,7210,비가맹
244,피자마루,(패스트푸드점/패스트푸드점),경기도 용인시 수지구 신봉동 40-2번지,37.32362315,127.0764567,2100503176,2307,비가맹
245,진1926 광교상현점,(일반음식점/일반음식점),경기도 용인시 수지구 상현동 1117-5번지,37.29733798,127.068785,7220101673,2301,비가맹
246,김대표푸드,(일반음식점/일반음식점),경기도 용인시 수지구 풍덕천동 69-53번지,37.32497952,127.1010324,2625000578,2301,비가맹
247,하늘빛카페 디저트힐 광교점,(일반음식점/일반음식점),경기도 용인시 수지구 상현동 1220번지,37.30030383,127.0713407,8053100753,2301,비가맹
248,양푼이,(일반음식점/일반음식점),경기도 용인시 수지구 풍덕천동 714-1번지,37.32435274,127.0969498,4256200376,2301,가맹
249,현 엘티이(LTE)죽전점,(통신기기/통신기기),경기도 용인시 수지구 죽전동 1188-1번지,37.33195808,127.126439,1420908070,3202,비가맹
250,한스브로스,(커피전문점/커피전문점),경기도 용인시 수지구 동천동 884번지,37.33333459,127.0954908,6781902496,2502,비가맹
251,맵짱떡볶이 죽전점,(일반음식점/일반음식점),경기도 용인시 수지구 죽전동 472-3번지,37.32721287,127.1139899,8537400050,2301,비가맹
252,두카(DUCA),(커피전문점/커피전문점),경기도 용인시 수지구 풍덕천동 722-8번지,37.32325549,127.0976667,5371501015,2502,비가맹
253,국가대표푸줏간,"(축산물,정육점/축산물,정육점)",경기도 용인시 수지구 동천동 884-5번지,37.33335532,127.0962808,5473101778,2102,가맹
254,올가스킨(orga skin),(화장품/화장품),경기도 용인시 수지구 죽전동 501번지 동성1차아파트,37.33058311,127.1109475,3280300665,1501,비가맹
255,부러워,(화장품/화장품),경기도 용인시 수지구 죽전동 331번지 도담마을아이파크,37.32884871,127.1181015,1420743582,1501,비가맹
256,가인뷰티,(화장품/화장품),경기도 용인시 수지구 동천동 850번지,37.33368775,127.0933328,4256400744,1501,비가맹
257,포메인상현역점,(일반음식점/일반음식점),경기도 용인시 수지구 상현동 1220번지,37.30030383,127.0713407,6580100903,2301,비가맹
258,글랑그디,(일반음식점/일반음식점),경기도 용인시 수지구 풍덕천동 716-11번지,37.32413178,127.0982377,3861600512,2301,가맹
259,언니네주막,(일반음식점/일반음식점),경기도 용인시 수지구 죽전동 1319-1번지,37.32255972,127.1245781,1292086821,2301,비가맹
260,사라의 정원,(일반음식점/일반음식점),경기도 용인시 수지구 신봉동 242-36번지,37.33037069,127.070391,5817100362,2301,비가맹
261,전주집 콩나물국밥,(일반음식점/일반음식점),경기도 용인시 수지구 죽전동 1175-7번지,37.33187355,127.1197117,6121713761,2301,비가맹
262,홍박사정육도매,"(축산물,정육점/축산물,정육점)",경기도 용인시 수지구 상현동 1127-2번지,37.29861691,127.0734715,6299900090,2102,비가맹
263,몬도커피츄러스광교상현역점,(커피전문점/커피전문점),경기도 용인시 수지구 상현동 1119-1번지,37.29905211,127.0691927,2242222034,2502,비가맹
264,갯바위조개구이,(일반주점/일반주점),"경기도 용인시 수지구 신봉동 백산상가 108,109",,,1420147515,2601,비가맹
265,남도흑염소,(일반음식점/일반음식점),경기도 용인시 수지구 신봉동 534-2번지,37.33326489,127.0583525,6332102026,2301,비가맹
266,풍원추어탕,(일반음식점/일반음식점),경기도 용인시 수지구 죽전동 1175-9번지,37.33191974,127.1200614,5336500718,2301,가맹
267,마셔마셔,(일반주점/일반주점),경기도 용인시 수지구 성복동 139번지,37.3157925,127.0746159,4821700379,2601,비가맹
268,단대포차,(일반주점/일반주점),경기도 용인시 수지구 죽전동 1325-11번지,37.32314135,127.1232321,1420773956,2601,비가맹
269,오늘 커피,(커피전문점/커피전문점),경기도 용인시 수지구 풍덕천동 676-6번지,37.33172349,127.1015047,2403000570,2502,비가맹
270,스티치커피플레이스,(커피전문점/커피전문점),경기도 용인시 수지구 풍덕천동 724-1번지,37.32230276,127.0984732,2233800566,2502,비가맹
271,다린,(커피전문점/커피전문점),경기도 용인시 수지구 죽전동 1337-5번지,37.32439737,127.1270521,1420729601,2502,비가맹
272,라니스화덕피자,(일반음식점/일반음식점),경기도 용인시 수지구 신봉동 645번지,37.33297268,127.052552,3933000705,2301,비가맹
273,달리는커피 풍덕천1호점,(커피전문점/커피전문점),경기도 용인시 수지구 풍덕천동 69-91번지,37.32496895,127.1005697,3237500522,2502,비가맹
274,134리듬복싱용인죽전점,(무수도장 등(학원)/무수도장 등(학원)),경기도 용인시 수지구 죽전동 1190-1번지,37.33148042,127.126464,8309701564,7204,비가맹
275,경희대 라온 태권도장,(무수도장 등(학원)/무수도장 등(학원)),경기도 용인시 수지구 동천동 937번지,37.33730454,127.0887638,6699501444,7204,비가맹
276,빛나라 출장세차,(세차장/세차장),경기도 용인시 수지구 성복동 571-1번지,37.32389068,127.0584073,5351101312,6702,비가맹
277,카앤피플 용인 수지구 사랑점,(세차장/세차장),경기도 용인시 수지구 상현동 33번지 현대파인빌리지,37.31038917,127.0913819,2653600979,6702,비가맹
278,아워개러지,(세차장/세차장),경기도 용인시 수지구 동천동 73-7번지,37.34897878,127.0865549,2230632086,6702,비가맹
279,에넥스 디앤에스(D&S),(가구판매점/가구판매점),경기도 용인시 수지구 상현동 864번지 만현마을성원상떼빌아파트,37.30925305,127.0912752,1420634198,3301,비가맹
280,목포항,(일반음식점/일반음식점),경기도 용인시 수지구 풍덕천동 711-2번지,37.32436777,127.0960693,5450900807,2301,비가맹
281,바닐라,(일반음식점/일반음식점),경기도 용인시 수지구 성복동 168-10번지 성복역서희스타힐스,37.31568138,127.0712985,3104100652,2301,비가맹
282,미미상회,"(농산물,청과물/농산물,청과물)",경기도 용인시 수지구 죽전동 1188-3번지,37.33189658,127.1269473,5239301426,2104,비가맹
283,이슬청과,"(농산물,청과물/농산물,청과물)",경기도 용인시 수지구 죽전동 452-6번지,37.32716423,127.1128952,4379800742,2104,비가맹
284,명품유통,"(농산물,청과물/농산물,청과물)",경기도 용인시 수지구 풍덕천동 739-8번지,37.32727167,127.1018104,1429047222,2104,비가맹
285,김치빌리아드 수지,(당구장/당구장),"경기도 용인시 수지구 신봉1로 84, 307 308호 (신봉동, 상록신봉종합상가)",,,2751201305,8308,가맹
286,예뜰아트 미술학원,(예체능계열학원/예체능계열학원),경기도 용인시 수지구 풍덕천동 1222번지,37.31446576,127.0842838,1359515178,7205,비가맹
287,김완국어논술학원,"(입시학원,보습학원/입시학원,보습학원)",경기도 용인시 수지구 죽전동 1335-2번지,37.32424665,127.1249986,7349700461,7201,비가맹
288,본죽앤비빕밥 용인동천점,(일반음식점/일반음식점),경기도 용인시 수지구 동천동 887번지,37.33354772,127.0971942,1207100338,2301,비가맹
289,해피팬,(일반음식점/일반음식점),경기도 용인시 수지구 죽전동 1336-2번지,37.32431157,127.1255739,4041416910,2301,비가맹
290,죠스떡볶이광교신대역점,(일반음식점/일반음식점),경기도 용인시 수지구 상현동 광교택지개발지구일상1층103,,,1420745329,2301,비가맹
291,코노코노코인노래연습장 죽전점,(노래방/노래방),경기도 용인시 수지구 죽전동 471번지,37.32713903,127.1134597,3242400713,8402,비가맹
292,(주)히어코퍼레이션,(기타취미.레저.스포츠/기타취미.레저.스포츠),경기도 용인시 수지구 풍덕천동 705-5번지,37.325251,127.0960307,4038600843,8310,비가맹
293,모디필라테스,(기타취미.레저.스포츠/기타취미.레저.스포츠),경기도 용인시 수지구 동천동 174-9번지,37.34030483,127.0962324,8831001927,8310,비가맹
294,대산타일,(기타가정.주방용품/기타가정.주방용품),경기도 용인시 수지구 풍덕천동 89-4,,,1352962813,3302,비가맹
295,안경매니져상현점,(안경.광학제품/안경.광학제품),경기도 용인시 수지구 상현동 259번지,37.30737593,127.0854513,8220302471,1403,비가맹
296,엠투엠피트니스 수지구청점,(기타취미.레저.스포츠/기타취미.레저.스포츠),경기도 용인시 수지구 풍덕천동 704번지,37.32576666,127.0965811,7110402595,8310,비가맹
297,미가,(기타잡화/기타잡화),경기도 용인시 수지구 풍덕천2동 풍덕천 705,,,1350698234,1401,비가맹
298,골목집,(일반음식점/일반음식점),경기도 용인시 수지구 동천동 882-7번지 파크빌,37.33401443,127.0966047,5266000618,2301,비가맹
299,광교MTB,(자전거/자전거),경기도 용인시 수지구 상현동 1119-1번지,37.29905211,127.0691927,1240251871,8106,비가맹
300,장기옥아동통합발달센터,(기타서비스/기타서비스),경기도 용인시 수지구 신봉동 925번지,37.32798892,127.0747955,3239100366,9602,비가맹
301,고려대리더스태권도장,(무수도장 등(학원)/무수도장 등(학원)),경기도 용인시 수지구 상현동 17-1번지,37.31227222,127.0911347,2519700044,7204,비가맹
302,스피드메이트SK용인고속점,(자동차정비/자동차정비),경기도 용인시 수지구 상현동 373-3번지,37.30133677,127.0703306,1973700315,6502,비가맹
303,탁소리,(일반음식점/일반음식점),경기도 용인시 수지구 신봉동 39외 2필지 에덴프라자 B101호,,,1060433210,2301,비가맹
304,형제참숯화로구이,(일반음식점/일반음식점),경기도 용인시 수지구 죽전동 484-14번지,37.32800818,127.1146292,6415000086,2301,비가맹
305,우리다 광교상현역점,(일반음식점/일반음식점),경기도 용인시 수지구 상현동 1131-3번지,37.29767502,127.0697534,7014201096,2301,비가맹
306,육회말투아웃,(일반음식점/일반음식점),경기도 용인시 수지구 풍덕천동 709번지,37.32492658,127.0960551,5480301439,2301,비가맹
307,주옥갈비,(일반음식점/일반음식점),경기도 용인시 수지구 성복동 746-4번지,37.31496376,127.0798119,5660602325,2301,비가맹
308,보다안경,(안경.광학제품/안경.광학제품),경기도 용인시 수지구 동천동 944번지,37.33638614,127.0916588,1420696990,1403,비가맹
309,오뎅에필꼬치면,(일식전문점/일식전문점),경기도 용인시 수지구 성복동 89 YK타운 에이동114호,,,1420609573,2303,비가맹
310,가온안경원,(안경.광학제품/안경.광학제품),경기도 용인시 수지구 죽전동 1188-5번지,37.33188953,127.1275682,5337900224,1403,비가맹
311,테르엔 죽전점,(기타서비스/기타서비스),경기도 용인시 수지구 죽전동 1197-2번지,37.33150843,127.123924,4325100679,9602,비가맹
312,아우토글라스,(차량부품.용품/차량부품.용품),경기도 용인시 수지구 성복동 746-3번지,37.31500819,127.0796311,2834700478,6501,비가맹
313,엠플러스,(사진관.현상소/사진관.현상소),경기도 용인시 수지구 풍덕천동 699번지 한국아파트,37.32398255,127.09413,1291439521,8113,비가맹
314,가온수학교습소,(기타교육.교습.학원/기타교육.교습.학원),경기도 용인시 수지구 풍덕천동 1047-1번지,37.31994,127.0876621,1849501657,7213,비가맹
315,그리다미술교습소,(기타교육.교습.학원/기타교육.교습.학원),경기도 용인시 수지구 동천동 914번지,37.34006901,127.0958046,1429133797,7213,가맹
316,전주약선콩나물국밥,(일반음식점/일반음식점),경기도 용인시 수지구 풍덕천동 1082-13번지,37.32101015,127.0947668,8870101908,2301,비가맹
317,필라인플로우,(기타취미.레저.스포츠/기타취미.레저.스포츠),경기도 용인시 수지구 풍덕천동 715-2번지,37.3246253,127.0975804,6364101136,8310,비가맹
318,요가로운,(기타취미.레저.스포츠/기타취미.레저.스포츠),경기도 용인시 수지구 죽전동 1259-1번지,37.32620835,127.118318,3710502680,8310,비가맹
319,(주)프리마베라컴퍼니,(기타교육.교습.학원/기타교육.교습.학원),경기도 용인시 수지구 동천동 185-1번지,37.3420285,127.1021502,2848802400,7213,비가맹
320,힐피아노교습소,(기타교육.교습.학원/기타교육.교습.학원),경기도 용인시 수지구 상현동 1099번지 심곡마을광교힐스테이트,37.30875101,127.074159,3019518544,7213,비가맹
321,안선생미술학원,(예체능계열학원/예체능계열학원),경기도 용인시 수지구 성복동 278-1번지,37.31680607,127.0682562,1429075956,7205,비가맹
322,바하음악학원,(예체능계열학원/예체능계열학원),경기도 용인시 수지구 죽전동 501번지 동성1차아파트,37.33058311,127.1109475,1369509951,7205,비가맹
323,바디홀릭기구필라테스 수지죽전점,(기타교육.교습.학원/기타교육.교습.학원),경기도 용인시 수지구 죽전동 1189-1번지,37.33196069,127.1244184,1382402065,7213,비가맹
324,광성자동차,(자동차정비/자동차정비),경기도 용인시 수지구 풍덕천동 69-51번지,37.32476281,127.1009207,6651500626,6502,비가맹
325,모유육아상담실,(기타서비스/기타서비스),경기도 용인시 수지구 풍덕천동 1195번지 수지푸르지오월드마크,37.32360868,127.1008139,8349801466,9602,가맹
326,(주)디코기획,"(입시학원,보습학원/입시학원,보습학원)",경기도 용인시 수지구 풍덕천동 707번지,37.32451633,127.0947028,2118822238,7201,비가맹
327,인투매쓰수학전문학원,"(입시학원,보습학원/입시학원,보습학원)",경기도 용인시 수지구 풍덕천동 1080-20번지,37.32197902,127.0960483,7609501446,7201,비가맹
328,프라우드 영어학원,"(입시학원,보습학원/입시학원,보습학원)",경기도 용인시 수지구 풍덕천동 1047-3번지,37.31986045,127.088114,6959701791,7201,비가맹
329,1등급대입센터국영수전문학원,"(입시학원,보습학원/입시학원,보습학원)",경기도 용인시 수지구 신봉동 40-2번지,37.32362315,127.0764567,3899401726,7201,비가맹
330,법률사무소 로안,(법무전문서비스/법무전문서비스),경기도 용인시 수지구 상현동 1131-8번지,37.29656527,127.0694664,1083765749,9502,비가맹
331,혼공스터디카페 죽전점,(기타부동산관련업/기타부동산관련업),경기도 용인시 수지구 죽전동 452-6번지,37.32716423,127.1128952,5798801177,3601,가맹
332,20oz 쿠름이의 꿈,(일반음식점/일반음식점),경기도 용인시 수지구 상현동 856번지,37.30965492,127.0875942,1074321128,2301,비가맹
333,열정국밥,(일반음식점/일반음식점),경기도 용인시 수지구 풍덕천동 733-5번지,37.326509,127.1001778,2933801036,2301,비가맹
334,크린토피아코인워시용인죽전도담,(세탁업/세탁업),경기도 용인시 수지구 죽전동 1273번지,37.32502684,127.1153216,1100977906,1301,비가맹
335,크린토피아 코인워시 용인광교상현점,(세탁업/세탁업),경기도 용인시 수지구 상현동 1132번지,37.29820056,127.0705064,7500101741,1301,비가맹
336,동성2차세탁소,(세탁업/세탁업),경기도 용인시 수지구 죽전2동 1003-8 동성2차아파트단지내주상가 2층 204호,37.32854062,127.1093213,1351459444,1301,비가맹
337,미소야 새터점,(일반음식점/일반음식점),경기도 용인시 수지구 죽전동 1188-4번지,37.33189747,127.1272295,6740902480,2301,비가맹
338,해담게장,(일반음식점/일반음식점),경기도 용인시 수지구 성복동 139번지,37.3157925,127.0746159,6471202440,2301,비가맹
339,태국식당팟퐁,(일반음식점/일반음식점),경기도 용인시 수지구 죽전동 1324번지,37.32358607,127.1241892,7061101078,2301,비가맹
340,세라믹스튜디오작연,(기타서비스/기타서비스),경기도 용인시 수지구 신봉동 752-9번지,37.33385092,127.0464736,1929800117,9602,비가맹
341,들마루,(일반음식점/일반음식점),경기도 용인시 수지구 상현동 66-9번지,37.30887165,127.0852851,4271102529,2301,비가맹
342,투고,(중식전문점/중식전문점),경기도 용인시 수지구 신봉동 955-4번지,37.32888699,127.0688982,2363001037,2302,비가맹
343,부벽루,(중식전문점/중식전문점),경기도 용인시 수지구 성복동 33-5번지,37.31071617,127.0817766,4904600986,2302,비가맹
344,작약대구탕,(일반음식점/일반음식점),경기도 용인시 수지구 동천동 899번지,37.33825017,127.101696,8761600897,2301,비가맹
345,No. 1319 (일삼일구),(일반음식점/일반음식점),경기도 용인시 수지구 죽전동 1319-5번지,37.32278707,127.125209,8047800186,2301,비가맹
346,국가대표신동태권도장,(무수도장 등(학원)/무수도장 등(학원)),경기도 용인시 수지구 성복동 752번지 성동마을수지자이아파트,37.32166424,127.068172,8189901063,7204,비가맹
347,죽전샘한의원,(한의원/한의원),경기도 용인시 수지구 죽전동 1188-5번지,37.33188953,127.1275682,4719001615,4212,비가맹
348,골프존파크 죽전허브스크린,(골프연습장/골프연습장),경기도 용인시 수지구 죽전동 1254-3번지,37.32846913,127.1150106,8533501201,8309,비가맹
349,스피드메이트수지동천점,(자동차정비/자동차정비),경기도 용인시 수지구 수지로489번길 8 (동천동),,,1420336026,6502,비가맹
350,로스텔라(ROASTELA),(커피전문점/커피전문점),경기도 용인시 수지구 신봉동 753-2번지,37.33434314,127.0479043,5575900732,2502,비가맹
351,철원한우직판장,"(축산물,정육점/축산물,정육점)",경기도 용인시 수지구 죽전동 548-7번지,37.33129107,127.1124338,1429010972,2102,비가맹
352,동천축산,"(축산물,정육점/축산물,정육점)",경기도 용인시 수지구 동천동 946-4번지,37.33588699,127.0906794,1919300706,2102,비가맹
353,미스터퍼니처,(가구판매점/가구판매점),경기도 용인시 수지구 동천동 387-6번지,37.33960874,127.0956378,2022664992,3301,비가맹
354,와이엔바디스튜디오,(기타취미.레저.스포츠/기타취미.레저.스포츠),경기도 용인시 수지구 동천동 282번지,37.33328155,127.0931657,8675400478,8310,비가맹
355,요가온스토리,(기타취미.레저.스포츠/기타취미.레저.스포츠),경기도 용인시 수지구 동천동 282번지,37.33328155,127.0931657,1906100449,8310,비가맹
356,(주)고다이빙,(기타취미.레저.스포츠/기타취미.레저.스포츠),경기도 용인시 수지구 죽전동 589-24번지,37.33330722,127.1115317,1428114054,8310,비가맹
357,김종구부산어묵수지구청역점,(일반음식점/일반음식점),경기도 용인시 수지구 풍덕천동 1075-2번지,37.32244078,127.0940142,6390102327,2301,비가맹
358,꽃다운 한 주,(일반음식점/일반음식점),경기도 용인시 수지구 상현동 257-1번지,37.30849181,127.084926,4681102063,2301,비가맹
359,진타코 진심타코야끼 광교상현역점,(일반음식점/일반음식점),경기도 용인시 수지구 상현동 1117번지,37.29851993,127.0690942,3960403148,2301,비가맹
360,봉우리솥뚜껑삼겹살,(일반음식점/일반음식점),경기도 용인시 수지구 신봉동 971-2번지,37.3274078,127.0686471,8822401498,2301,비가맹
361,카운터,(일반음식점/일반음식점),경기도 용인시 수지구 성복동 139번지,37.3157925,127.0746159,5500602714,2301,비가맹
362,부광차유리,(자동차정비/자동차정비),경기도 용인시 수지구 풍덕천동 686-4번지,37.33101501,127.0999055,1351598051,6502,비가맹
363,연세이비인후과의원,(이비인후과/이비인후과),경기도 용인시 수지구 상현동 259번지,37.30737593,127.0854513,2159052042,4208,비가맹
364,이안소아청소년과의원,(소아과/소아과),경기도 용인시 수지구 풍덕천동 1080-9번지,37.32253617,127.0955487,1359108970,4214,비가맹
365,컴포즈커피 동천역점,(커피전문점/커피전문점),경기도 용인시 수지구 동천동 899번지,37.33825017,127.101696,5440402447,2502,비가맹
366,센클영어도서관성복캠퍼스학원,(외국어학원/외국어학원),경기도 용인시 수지구 성복동 740-1번지,37.31528264,127.0807694,2749801742,7202,가맹
367,제이매쓰 수학교습소,(기타교육.교습.학원/기타교육.교습.학원),경기도 용인시 수지구 동천동 산151-2번지 더샵동천이스트포레,37.33201948,127.0931273,4549401961,7213,비가맹
368,미래엔영어 죽전꽃메영어교습소,(기타교육.교습.학원/기타교육.교습.학원),경기도 용인시 수지구 죽전동 1300번지,37.32252754,127.1145669,8019701800,7213,비가맹
369,한울태권도,(무수도장 등(학원)/무수도장 등(학원)),경기도 용인시 수지구 죽전동 484-9번지,37.32861103,127.1142988,7759700142,7204,비가맹
370,주드,(일반음식점/일반음식점),경기도 용인시 수지구 신봉동 46-3번지,37.32358831,127.0793237,7034900772,2301,비가맹
371,동한한의원,(한의원/한의원),경기도 용인시 수지구 풍덕천동 1080-4번지,37.32213632,127.0946027,1429015846,4212,비가맹
372,봉원당한의원,(한의원/한의원),경기도 용인시 수지구 상현동 1131-5번지,37.2973593,127.0696875,1109677828,4212,비가맹
373,다정한의원,(한의원/한의원),경기도 용인시 수지구 죽전동 1177-4번지,37.33196464,127.1228268,1359066425,4212,가맹
374,인투엠수학과학3관학원,"(입시학원,보습학원/입시학원,보습학원)",경기도 용인시 수지구 신봉동 964-1번지,37.32836951,127.0678853,8449502025,7201,비가맹
375,삼성영어셀레나미래엔수학대일최강학원,"(입시학원,보습학원/입시학원,보습학원)",경기도 용인시 수지구 죽전동 1259-3번지,37.32590224,127.1184325,5099903890,7201,비가맹
376,상현메디칼약국,(약국/약국),경기도 용인시 수지구 상현동 257-22번지,37.30785998,127.0846813,2031113129,4402,가맹
377,광교튼튼약국,(약국/약국),경기도 용인시 수지구 상현동 1131-3번지,37.29767502,127.0697534,6662500860,4402,비가맹
378,로얄약국,(약국/약국),경기도 용인시 수지구 풍덕천동 1078번지,37.32310172,127.0948684,5781600576,4402,비가맹
379,농업회사법인 미트서플라이(주),"(축산물,정육점/축산물,정육점)",경기도 용인시 수지구 상현동 1220번지,37.30030383,127.0713407,3038602371,2102,비가맹
380,로이스피아노교습소,(기타교육.교습.학원/기타교육.교습.학원),경기도 용인시 수지구 동천동 382번지,37.34060529,127.0971113,7899101599,7213,비가맹
381,본죽앤비빔밥(죽전현대홈타운점),(일반음식점/일반음식점),경기도 용인시 수지구 죽전동 1177-3번지,37.33195437,127.1224317,1293108059,2301,비가맹
382,브런치빈 용인수지구청점,(서양식전문점/서양식전문점),경기도 용인시 수지구 풍덕천동 1080-9번지,37.32253617,127.0955487,4823401360,2305,비가맹
383,에이스시스템,(기타수리.수선전문/기타수리.수선전문),경기도 용인시 수지구 죽전동 89-1번지 현대아파트,37.33145473,127.1297602,7442100968,3504,비가맹
384,가우자리,(미용실(두발전문)/미용실(두발전문)),경기도 용인시 수지구 죽전동 1216번지,37.33014409,127.1229036,1351884295,1602,비가맹
385,휴헤어,(미용실(두발전문)/미용실(두발전문)),경기도 용인시 수지구 풍덕천동 522-2번지,37.31650822,127.0832342,7435300200,1602,비가맹
386,벧엘피아노,(기타교육.교습.학원/기타교육.교습.학원),경기도 용인시 수지구 풍덕천동 663-1번지,37.32969363,127.0930495,7609700913,7213,비가맹
387,동천홍익미술학원,(예체능계열학원/예체능계열학원),경기도 용인시 수지구 동천동 873-4번지,37.33566194,127.0933786,5259900236,7205,비가맹
388,세인트 해리,(커피전문점/커피전문점),경기도 용인시 수지구 상현동 1158-12번지,37.29664908,127.0802523,1833301369,2502,비가맹
389,마이컬렉션,(기타가정.주방용품/기타가정.주방용품),경기도 용인시 수지구 동천동 882-5번지,37.33402237,127.0962886,1131959250,3302,비가맹
390,코알라타일,(기타건축자재/기타건축자재),경기도 용인시 수지구 죽전동 1325-9번지,37.3232414,127.1235137,5352500983,3403,비가맹
391,씨유(CU) 수지진산마을점,(편의점/편의점),"경기도 용인시 수지구 풍덕천동 1168-1번지 진산마을삼성래미안5차아파트 제2동 1층 101호, 104호",37.31909959,127.0975196,1125200087,5202,비가맹
392,르영에스테틱,(피부.체형미관리/피부.체형미관리),경기도 용인시 수지구 풍덕천동 1060번지,37.32083505,127.0910319,6024404261,1701,비가맹
393,단아한미인의원,(피부과/피부과),경기도 용인시 수지구 성복동 89번지,37.31341877,127.0787936,5860200129,4209,비가맹
394,장그린내과의원,(내과/내과),경기도 용인시 수지구 풍덕천동 722-1번지,37.32341724,127.0975191,1019703300,4202,비가맹
395,미래연세내과소아과,(내과/내과),경기도 용인시 수지구 상현동 263번지,37.3064742,127.0853547,1359145413,4202,비가맹
396,본만두수지죽전점,(일반음식점/일반음식점),경기도 용인시 수지구 죽전동 1185-1번지,37.33278224,127.1276767,6037010727,2301,비가맹
397,도깨비 냉장고 상현점,(기타식음료품/기타식음료품),경기도 용인시 수지구 상현동 838번지 상현마을동일스위트,37.30389294,127.0818595,1208551867,2105,비가맹
398,신봉큰떡방앗간,(기타식음료품/기타식음료품),경기도 용인시 수지구 신봉동 141-5번지,37.32765808,127.0730365,1420763706,2105,비가맹
399,엠와이갤러리(M.Y Gallery),(예술품.골동품/예술품.골동품),경기도 용인시 수지구 동천동 714-51번지,37.34369436,127.0560673,1124067426,8109,비가맹
400,선 요가and필라테스,(기타취미.레저.스포츠/기타취미.레저.스포츠),경기도 용인시 수지구 상현동 856번지,37.30965492,127.0875942,4162066563,8310,비가맹
401,수유리 혼밥왕 용인수지점,(일반음식점/일반음식점),경기도 용인시 수지구 동천동 883-8번지,37.33360885,127.0966181,2162327210,2301,비가맹
402,낼름족발,(일반음식점/일반음식점),경기도 용인시 수지구 동천동 884번지,37.33333459,127.0954908,7451402559,2301,비가맹
403,한샘이용원,(이발소/이발소),경기도 용인시 수지구 풍덕천동 664번지,37.33295005,127.0963846,1351342117,1601,비가맹
404,인헌수학학원,"(입시학원,보습학원/입시학원,보습학원)",경기도 용인시 수지구 동천동 371-5번지,37.34039418,127.0986478,4849201901,7201,비가맹
405,미래인재수학학원,"(입시학원,보습학원/입시학원,보습학원)",경기도 용인시 수지구 죽전동 1197-1번지,37.33146207,127.1235179,3199001786,7201,비가맹
406,에듀코치개별지도상현역학원,"(입시학원,보습학원/입시학원,보습학원)",경기도 용인시 수지구 상현동 1117-5번지,37.29733798,127.068785,2289102244,7201,비가맹
407,돌격수학2관학원,"(입시학원,보습학원/입시학원,보습학원)",경기도 용인시 수지구 상현동 1117-2번지,37.29805081,127.068984,3419601669,7201,비가맹
408,왕십리곱창,(일반음식점/일반음식점),경기도 용인시 수지구 죽전동 1175-7번지,37.33187355,127.1197117,1420662961,2301,가맹
409,해피덮,(일반음식점/일반음식점),경기도 용인시 수지구 죽전동 1336-5번지,37.32430388,127.1259916,3082700518,2301,비가맹
410,쥬디스커피에콜(Judys c,(기타서비스/기타서비스),경기도 용인시 수지구 동천동 424-7,,,1420542158,9602,비가맹
411,인테니스 아인스,(기타취미.레저.스포츠/기타취미.레저.스포츠),경기도 용인시 수지구 죽전동 1174-1번지,37.33176102,127.1183577,1330979682,8310,비가맹
412,한국파워점핑줄넘기,(기타취미.레저.스포츠/기타취미.레저.스포츠),경기도 용인시 수지구 상현동 1130-2번지,37.29774689,127.0746724,5534100512,8310,비가맹
413,영원한 미소 미술학원,(예체능계열학원/예체능계열학원),경기도 용인시 수지구 풍덕천동 1080-3번지,37.32202762,127.0944453,7489001816,7205,가맹
414,발롱발레학원,(예체능계열학원/예체능계열학원),경기도 용인시 수지구 상현동 1131-5번지,37.2973593,127.0696875,8849002047,7205,비가맹
415,디엔애이입시미술학원,(예체능계열학원/예체능계열학원),경기도 용인시 수지구 성복동 71-3번지,37.31337675,127.0796515,1179037577,7205,비가맹
416,타이어테크용인상현점,(타이어판매점/타이어판매점),경기도 용인시 수지구 상현동 193-11번지,37.30662714,127.0751076,8372601793,6504,비가맹
417,풀빛,(일반음식점/일반음식점),경기도 용인시 수지구 풍덕천동 716-10번지,37.32406833,127.0981365,5121518308,2301,비가맹
418,(주)돈독푸드,(일반음식점/일반음식점),경기도 용인시 수지구 동천동 942-1번지,37.33757797,127.0922394,4358102988,2301,비가맹
419,루체떼(Lucete),(일반음식점/일반음식점),경기도 용인시 수지구 풍덕천동 240-3번지,37.31681212,127.0876453,3936900549,2301,비가맹
420,워시엔조이 셀프빨래방 수지신봉점,(세탁업/세탁업),경기도 용인시 수지구 신봉동 105-8번지,37.32472994,127.0734142,6361701261,1301,비가맹
421,수지동문굿모닝힐점,(세탁업/세탁업),"경기도 용인시 수지구 동천동 171-15 동문아파트단지내 상가,203호",,,7543800060,1301,비가맹
422,돼감신쌤국어교습소,(기타교육.교습.학원/기타교육.교습.학원),경기도 용인시 수지구 풍덕천동 707번지,37.32451633,127.0947028,1429098833,7213,비가맹
423,진헤어샵,(미용실(두발전문)/미용실(두발전문)),경기도 용인시 수지구 신봉동 43번지,37.32385659,127.078724,1420317636,1602,비가맹
424,리안헤어 상현점,(미용실(두발전문)/미용실(두발전문)),경기도 용인시 수지구 상현동 66-9번지,37.30887165,127.0852851,1420960168,1602,비가맹
425,최가을 헤어드레서,(미용실(두발전문)/미용실(두발전문)),경기도 용인시 수지구 성복동 70-1번지,37.31305001,127.0790213,5083600556,1602,비가맹
426,손골 한우마을,(일반음식점/일반음식점),경기도 용인시 수지구 동천동 596번지,37.34289134,127.0655667,5982000596,2301,가맹
427,킹스꼬마김밥상현점,(일반음식점/일반음식점),경기도 용인시 수지구 상현동 1131-7번지,37.2968449,127.0695212,4312701670,2301,비가맹
428,매일봄온누리약국,(약국/약국),경기도 용인시 수지구 동천동 282번지,37.33328155,127.0931657,4261102579,4402,비가맹
429,스낵얌 죽전단대점,(일반음식점/일반음식점),경기도 용인시 수지구 죽전동 1323-2번지,37.32330711,127.1243373,2582102126,2301,비가맹
430,보노헤어,(미용실(두발전문)/미용실(두발전문)),경기도 용인시 수지구 동천동 873-3번지,37.3359679,127.0932302,7765100389,1602,가맹
431,나의수학교습소,(기타교육.교습.학원/기타교육.교습.학원),경기도 용인시 수지구 동천동 105-3번지 동천자이아파트,37.34588402,127.0908735,4829801815,7213,비가맹
432,크린토피아죽전건영캐스빌점,(세탁업/세탁업),경기도 용인시 수지구 죽전동 1182번지 내대지마을건영캐스빌,37.33300406,127.126558,1420727544,1301,비가맹
433,역전국밥 수지구청점,(일반음식점/일반음식점),경기도 용인시 수지구 풍덕천동 712-5번지,37.32362726,127.095667,5072101602,2301,비가맹
434,빵꾸똥꾸문구야 용인수지점,"(문구,사무용품/문구,사무용품)",경기도 용인시 수지구 풍덕천동 1209번지 e편한세상수지,37.31534654,127.0861185,7170102651,8102,비가맹
435,프라임제이영어학원,(기타교육.교습.학원/기타교육.교습.학원),경기도 용인시 수지구 죽전동 484-9번지,37.32861103,127.1142988,1019434097,7213,비가맹
436,키클아이,(기타교육.교습.학원/기타교육.교습.학원),경기도 용인시 수지구 풍덕천동 692번지,37.32631195,127.0900089,2036567763,7213,비가맹
437,미플러스,(화장품/화장품),경기도 용인시 수지구 성복동 167번지 KCC스위첸,37.31520994,127.0730392,3922300039,1501,비가맹
438,올가드림뷰티 만현마을쌍용점,(화장품/화장품),경기도 용인시 수지구 상현동 850번지 만현마을쌍용아파트,37.30627771,127.0884589,4182201901,1501,비가맹
439,웰약국,(약국/약국),경기도 용인시 수지구 죽전동 1177-2번지,37.33196227,127.1220818,6134800832,4402,비가맹
440,뮤엠영어효자학원,(기타교육.교습.학원/기타교육.교습.학원),경기도 용인시 수지구 성복동 278-1번지,37.31680607,127.0682562,5769600140,7213,비가맹
441,미미살롱,(미용실(두발전문)/미용실(두발전문)),경기도 용인시 수지구 죽전동 484-12번지,37.32797967,127.1141778,6876000456,1602,비가맹
442,약손,(피부.체형미관리/피부.체형미관리),경기도 용인시 수지구 성복동 89번지,37.31341877,127.0787936,1113468775,1701,가맹
443,코코 뷰티,(피부.체형미관리/피부.체형미관리),경기도 용인시 수지구 풍덕천동 661-7번지,37.33332883,127.0938088,4404800670,1701,비가맹
444,타기네일,(피부.체형미관리/피부.체형미관리),경기도 용인시 수지구 상현동 66-9번지,37.30887165,127.0852851,5101595255,1701,비가맹
445,카페마노아,(일반음식점/일반음식점),경기도 용인시 수지구 상현동 71번지,37.31016176,127.0856052,6424301038,2301,비가맹
446,꼬꼬방집으로삼겹 용인1호점,(일반음식점/일반음식점),경기도 용인시 수지구 풍덕천동 729-4번지,37.32502792,127.0993503,1124223591,2301,가맹
447,도담주니어치과의원,(치과/치과),경기도 용인시 수지구 죽전동 484-12번지,37.32797967,127.1141778,7203001508,4201,비가맹
448,이-프란트 치과,(치과/치과),"경기도 용인시 수지구 동천동 4-100BL 수지하우비 4층 5호,6호",,,1359132543,4201,비가맹
449,다복,(일반음식점/일반음식점),경기도 용인시 수지구 풍덕천동 740-4번지,37.32717339,127.1020705,4675500289,2301,비가맹
450,웰에이징굿케어,(건강보조식품/건강보조식품),경기도 용인시 수지구 성복동 409-1번지,37.31993867,127.0622001,1283584028,2201,비가맹
451,대우마트,(슈퍼마켓.마트/슈퍼마켓.마트),"경기도 용인시 수지구 신봉동 신봉택지개발지구내상가 101,102호",,,1351813825,5201,비가맹
452,동성마트,(슈퍼마켓.마트/슈퍼마켓.마트),경기도 용인시 수지구 죽전동 501번지 동성1차아파트,37.33058311,127.1109475,1351581792,5201,비가맹
453,웰스톤스크린골프존파크,(골프연습장/골프연습장),경기도 용인시 수지구 신봉동 925번지,37.32798892,127.0747955,6647900362,8309,비가맹
454,피앤씨(PNC)에듀케이션,(외국어학원/외국어학원),경기도 용인시 수지구 신봉동 967번지,37.32794718,127.0682489,5049315894,7202,비가맹
455,닭나무집 수지성복점,(일반음식점/일반음식점),경기도 용인시 수지구 성복동 168-10번지 성복역서희스타힐스,37.31568138,127.0712985,3854801052,2301,가맹
456,더달달 동천점,(기타식음료품/기타식음료품),경기도 용인시 수지구 동천동 105-3번지 동천자이아파트,37.34588402,127.0908735,5374001244,2105,비가맹
457,본죽광교역점,(일반음식점/일반음식점),경기도 용인시 수지구 상현동 광교택지개발지구SB타운109호,,,1420755905,2301,비가맹
458,쎄느어게인,(커피전문점/커피전문점),경기도 용인시 수지구 풍덕천동 71-123번지,37.32566548,127.1012997,1420339154,2502,비가맹
459,멜팅포인트(meltingpoi,(커피전문점/커피전문점),경기도 용인시 수지구 신봉동 663-10번지,37.33302451,127.0495829,6022191879,2502,비가맹
460,올리베떼,서양식전문점/서양식전문점,경기도 용인시 수지구 상현동 1220번지,37.30030383,127.0713407,7714300109,2305,비가맹
461,나쿠펜다,(일반음식점/일반음식점),경기도 용인시 수지구 상현동 867번지,37.3069206,127.0765052,7230200145,2301,비가맹
462,정윤케익 카페공방,(일반음식점/일반음식점),경기도 용인시 수지구 신봉동 967번지,37.32794718,127.0682489,5264900608,2301,비가맹
463,닐리비스트로,(서양식전문점/서양식전문점),경기도 용인시 수지구 풍덕천동 1080-20번지,37.32197902,127.0960483,1420516757,2305,가맹
464,두오모(DUOMO),(아이스크림전문점/아이스크림전문점),경기도 용인시 수지구 성복동 752번지 성동마을수지자이아파트,37.32166424,127.068172,8043201270,2503,비가맹
465,카페메르헨,(일반음식점/일반음식점),경기도 용인시 수지구 성복동 523번지,37.31819972,127.0551451,4162890661,2301,비가맹
466,데일리커피앤디저트,(일반음식점/일반음식점),경기도 용인시 수지구 동천동 105-3번지 동천자이아파트 상가동 지하1층 A140호,37.34608267,127.090974,7756500312,2301,비가맹
467,바름,(일반음식점/일반음식점),경기도 용인시 수지구 동천동 899번지,37.33825017,127.101696,4840201894,2301,비가맹
468,보다안경원,(안경.광학제품/안경.광학제품),경기도 용인시 수지구 죽전동 1176-2번지,37.33198534,127.12084,1313257055,1403,비가맹
469,아이포인트,(안경.광학제품/안경.광학제품),경기도 용인시 수지구 동천동 587-4번지 더테라스힐,37.34237937,127.0685276,2793700112,1403,비가맹
470,으뜸플러스안경(용인수지점),(안경.광학제품/안경.광학제품),경기도 용인시 수지구 풍덕천동 1075-2번지,37.32244078,127.0940142,1063652687,1403,비가맹
471,청운검도관,(예체능계열학원/예체능계열학원),경기도 용인시 수지구 신봉동 50-2번지,37.32310353,127.0798795,1359039461,7205,비가맹
472,위편한내과,(내과/내과),경기도 용인시 수지구 죽전동 1178-3번지,37.3319501,127.1239218,1359134385,4202,비가맹
473,오픈하우스 수지구청점,(기타숙박업소/기타숙박업소),경기도 용인시 수지구 풍덕천동 705-7번지,37.32543231,127.0963345,2045393562,6103,비가맹
474,주성카병원,(자동차정비/자동차정비),경기도 용인시 수지구 동천동 83번지,37.34801494,127.0893264,4501601618,6502,비가맹
475,디알오토(DR AUTO),(자동차정비/자동차정비),경기도 용인시 수지구 풍덕천동 723-2번지,37.3230942,127.0979498,4534500258,6502,비가맹
476,위드커피(With COFFEE),(커피전문점/커피전문점),경기도 용인시 수지구 성복동 33-5번지,37.31071617,127.0817766,2924800616,2502,비가맹
477,이유헤어,(미용실(두발전문)/미용실(두발전문)),경기도 용인시 수지구 신봉동 899번지,37.32059457,127.0841033,4813700544,1602,비가맹
478,새미케이크,(제과.제빵/제과.제빵),경기도 용인시 수지구 상현동 1133번지,37.29607775,127.0692548,1066700596,2501,비가맹
479,꾸떼드미엘(Gouterdumiel),(제과.제빵/제과.제빵),경기도 용인시 수지구 상현동 1131번지,37.29838789,127.0699637,6465000290,2501,비가맹
480,세영자전거,(편의점/편의점),경기도 용인시 수지구 풍덕천동 1093-1번지,37.32141971,127.093286,2051816174,5202,비가맹
481,글로리네일,(피부.체형미관리/피부.체형미관리),경기도 용인시 수지구 죽전동 1325-4번지,37.32337632,127.1234228,8660802097,1701,비가맹
482,연세편안한이비인후과의원,(이비인후과/이비인후과),경기도 용인시 수지구 풍덕천동 1080-3번지,37.32202762,127.0944453,4699401681,4208,비가맹
483,해맑은소아청소년과의원,(소아과/소아과),경기도 용인시 수지구 신봉동 33번지,37.32317795,127.0779942,1329021939,4214,가맹
484,연우한의원,(한의원/한의원),경기도 용인시 수지구 신봉동 964-1번지,37.32836951,127.0678853,2749901813,4212,비가맹
485,경희회복한의원,(한의원/한의원),경기도 용인시 수지구 성복동 129-1번지,37.31589689,127.0735657,1429088709,4212,비가맹
486,117야식,(일반음식점/일반음식점),경기도 용인시 수지구 풍덕천동 670-6번지,37.33250055,127.0993897,1420571731,2301,비가맹
487,라잇,(일반음식점/일반음식점),경기도 용인시 수지구 죽전동 1339-8번지,37.32455487,127.1255501,2733200915,2301,비가맹
488,아우름,(일반음식점/일반음식점),경기도 용인시 수지구 풍덕천동 723-2번지,37.3230942,127.0979498,6487200100,2301,비가맹
489,현대크리너스,(세탁업/세탁업),경기도 용인시 수지구 죽전1동 1118대지마을현대홈타운3차2단지상가 101-3호,,,2131101784,1301,비가맹
490,모두의만족,(일반음식점/일반음식점),경기도 용인시 수지구 동천동 883-12번지,37.33361571,127.095986,1623000848,2301,비가맹
491,꽃 힐링,(기술.직업훈력학원/기술.직업훈력학원),경기도 용인시 수지구 상현동 827번지 수지금호베스트빌TheEdu,37.30545149,127.079075,8892101348,7211,가맹
492,용한외과,(외과/외과),경기도 용인시 수지구 풍덕천동 715-2번지,37.3246253,127.0975804,1420888169,4204,비가맹
493,지니여성의원,(산부인과/산부인과),경기도 용인시 수지구 성복동 67-6번지,37.31267428,127.0798247,5189100585,4206,비가맹
494,엘리 피부과 의원,(피부과/피부과),경기도 용인시 수지구 성복동 76번지,37.31435828,127.0793752,3763501363,4209,비가맹
495,미시간피부과의원,(피부과/피부과),경기도 용인시 수지구 성복동 74번지,37.31392771,127.0799644,1420651348,4209,비가맹
496,은내과,(내과/내과),경기도 용인시 수지구 풍덕천동 703 203호,37.32619081,127.0967255,1359605226,4202,비가맹
497,대학동물병원,(동물병원/동물병원),경기도 용인시 수지구 풍덕천동 666-1번지,37.33291205,127.0984619,1351454134,8115,비가맹
498,빵드숑(Pain de chon),(제과.제빵/제과.제빵),경기도 용인시 수지구 신봉동 938-4번지,37.32947871,127.0704977,1681302226,2501,비가맹
499,티타임24 단국대점,(기타식음료품/기타식음료품),경기도 용인시 수지구 죽전동 1345-3번지,37.32600555,127.1253736,2233201622,2105,비가맹
500,시즈널쿡,(기타식음료품/기타식음료품),경기도 용인시 수지구 성복동 98-10번지,37.31565726,127.0771221,2072092185,2105,비가맹
501,문쿠키,(기타식음료품/기타식음료품),경기도 용인시 수지구 죽전동 1191-5번지 죽전스카이프라자,37.33151434,127.1257865,1041571548,2105,비가맹
502,패브리코,(커튼.카펫.수건/커튼.카펫.수건),경기도 용인시 수지구 동천동 618-3번지,37.34414857,127.0618451,7971001418,1201,비가맹
503,아이픽영수학원,"(입시학원,보습학원/입시학원,보습학원)",경기도 용인시 수지구 성복동 740-1번지,37.31528264,127.0807694,7919701430,7201,비가맹
504,윤선생우리집앞영어교실 수지더샵포레공부방,(기타교육.교습.학원/기타교육.교습.학원),경기도 용인시 수지구 상현동 1214번지 더샵수지포레,37.30860333,127.0884688,1559801586,7213,비가맹
505,상현성원이해법수학교습소,(기타교육.교습.학원/기타교육.교습.학원),경기도 용인시 수지구 상현동 866번지 광교상떼빌파크뷰,37.30106523,127.077531,1429100409,7213,비가맹
506,튼튼영어마스터클럽수지송화마을영,(기타교육.교습.학원/기타교육.교습.학원),경기도 용인시 수지구 상현동 30번지,37.31454807,127.0923976,4279100391,7213,비가맹
507,큐이디(QED)수학교습소,(기타교육.교습.학원/기타교육.교습.학원),경기도 용인시 수지구 동천동 873-3번지,37.3359679,127.0932302,6219512973,7213,비가맹
508,지앤비헤어포인트,(미용실(두발전문)/미용실(두발전문)),경기도 용인시 수지구 동천동 864번지,37.33635739,127.0937812,1420262809,1602,비가맹
509,예쁘다헤어,(미용실(두발전문)/미용실(두발전문)),경기도 용인시 수지구 풍덕천동 504-10번지,37.31766602,127.0869522,8293700464,1602,가맹
510,이세돌 바둑학원,(기타교육.교습.학원/기타교육.교습.학원),경기도 용인시 수지구 상현동 254-14번지,37.30676003,127.0846083,1909601606,7213,비가맹
511,하이클래스고등영어교습소,(기타교육.교습.학원/기타교육.교습.학원),경기도 용인시 수지구 상현동 1117-2번지,37.29805081,127.068984,1799401696,7213,비가맹
512,샐러디 상현역점,(일반음식점/일반음식점),경기도 용인시 수지구 상현동 1132번지,37.29820056,127.0705064,8841902354,2301,비가맹
513,타미다육,(인터넷상거래/인터넷상거래),경기도 용인시 수지구 풍덕천동 661-12번지,37.33331374,127.0946668,6299900799,5501,비가맹
514,스터디센터디온리독서실,(기타교육.교습.학원/기타교육.교습.학원),"경기도 용인시 수지구 현암로 147, 402 403호 (죽전동,우성메디피아)",,,4808502614,7213,비가맹
515,가마솥토종순대국,(일반음식점/일반음식점),경기도 용인시 수지구 풍덕천동 122-3번지,37.32447774,127.0992517,1352655188,2301,비가맹
516,나이스가이 수지점,(미용실(두발전문)/미용실(두발전문)),경기도 용인시 수지구 풍덕천동 1209번지 e편한세상수지,37.31534654,127.0861185,7092301390,1602,비가맹
517,홀인원,(기타숙박업소/기타숙박업소),경기도 용인시 수지구 풍덕천동 922번지,37.32608436,127.1025616,1261560037,6103,비가맹
518,서민호미용실,(미용실(두발전문)/미용실(두발전문)),경기도 용인시 수지구 죽전동 832-1번지 용인수지벽산타운2단지,37.33572988,127.1054572,1420239706,1602,비가맹
519,르해브드베베,(커피전문점/커피전문점),경기도 용인시 수지구 죽전동 1345-2번지,37.32614147,127.1255987,1420502869,2502,비가맹
520,헨델피아노교습소,(기타교육.교습.학원/기타교육.교습.학원),"경기도 용인시 수지구 신봉동 905번지 상가A동203호일부,서홍마을우남퍼스트빌아파트",37.31914494,127.0820008,6959900103,7213,가맹
521,잉글리쉬 브릿지,(기타교육.교습.학원/기타교육.교습.학원),경기도 용인시 수지구 상현동 864번지 만현마을성원상떼빌아파트,37.30925305,127.0912752,1049152905,7213,비가맹
522,수내닭꼬치 수지구청점,(일반음식점/일반음식점),경기도 용인시 수지구 풍덕천동 713-6번지,37.3238103,127.0964786,7732000649,2301,비가맹
523,불향기(죽전점),(일반음식점/일반음식점),경기도 용인시 수지구 죽전동 918번지,37.33538806,127.1083827,2152802661,2301,비가맹
524,안주 달리는 포차,(일반음식점/일반음식점),경기도 용인시 수지구 동천동 336-3번지,37.33779865,127.0935025,3493400685,2301,비가맹
525,꾸이한끼,(일반음식점/일반음식점),경기도 용인시 수지구 풍덕천동 704번지,37.32576666,127.0965811,2951401318,2301,비가맹
526,상현골한우곱창,(일반음식점/일반음식점),경기도 용인시 수지구 상현동 1133-1번지,37.29604309,127.0696386,7722500675,2301,비가맹
527,애니카랜드 신봉점,(자동차정비/자동차정비),경기도 용인시 수지구 신봉동 261번지,,,1420851212,6502,비가맹
528,핑거워시24시,(세차장/세차장),경기도 용인시 수지구 동천동 921번지,37.33790394,127.0874623,3744001003,6702,비가맹
529,캐틀하우스(동천점),"(축산물,정육점/축산물,정육점)",경기도 용인시 수지구 동천동 350번지,37.33934448,127.0948038,1227043923,2102,비가맹
530,동문축산물판매장,"(축산물,정육점/축산물,정육점)",경기도 용인시 수지구 동천동 914번지,37.34006901,127.0958046,1429072037,2102,비가맹
531,부부유통,"(축산물,정육점/축산물,정육점)",경기도 용인시 수지구 동천동 862번지 동천마을현대2차홈타운,37.33846631,127.0963212,1293802087,2102,비가맹
532,서킷50 팀트레이닝,(헬스클럽/헬스클럽),경기도 용인시 수지구 동천동 947-1번지,37.33567207,127.0910869,3172102385,8305,비가맹
533,이두부야,(식음료(기타)/식음료(기타)),경기도 용인시 수지구 상현동 257-22번지,37.30785998,127.0846813,1129471506,2310,비가맹
534,써브웨이 용인동천점,(패스트푸드점/패스트푸드점),경기도 용인시 수지구 동천동 899번지,37.33825017,127.101696,3125400677,2307,비가맹
535,최상위권수학영어학원,"(입시학원,보습학원/입시학원,보습학원)",경기도 용인시 수지구 동천동 944번지,37.33638614,127.0916588,2129142936,7201,비가맹
536,별빛영어학원,"(입시학원,보습학원/입시학원,보습학원)",경기도 용인시 수지구 죽전동 1189-3번지,37.33198094,127.1251182,6849801653,7201,비가맹
537,엠베스트SE상현학원,"(입시학원,보습학원/입시학원,보습학원)",경기도 용인시 수지구 상현동 263번지,37.3064742,127.0853547,2149465426,7201,비가맹
538,오르수학전문학원,"(입시학원,보습학원/입시학원,보습학원)",경기도 용인시 수지구 상현동 857번지,37.30984331,127.0847606,7289401843,7201,비가맹
539,(주)남도진달래소반동천,(일반음식점/일반음식점),경기도 용인시 수지구 동천동 763-32번지,37.34629692,127.0929825,1018618317,2301,비가맹
540,제카 영어학원,(기타교육.교습.학원/기타교육.교습.학원),경기도 용인시 수지구 풍덕천동 1080-20번지,37.32197902,127.0960483,1429154846,7213,비가맹
541,올라스터디카페,(기타교육.교습.학원/기타교육.교습.학원),경기도 용인시 수지구 죽전동 1329번지 성현마을우미이노스빌,37.32525118,127.1234134,7646200534,7213,비가맹
542,쿠아트미술교습소,(기타교육.교습.학원/기타교육.교습.학원),경기도 용인시 수지구 상현동 850번지 만현마을쌍용아파트제상가동제210호,37.307088,127.0855995,1429151965,7213,비가맹
543,잉글리쉬벅영어교습소,(기타교육.교습.학원/기타교육.교습.학원),경기도 용인시 수지구 상현동 866번지 광교상떼빌파크뷰,37.30106523,127.077531,3709900446,7213,비가맹
544,웰빙유통,"(농산물,청과물/농산물,청과물)",경기도 용인시 수지구 성복2로 271 (성복동),,,7699201267,2104,비가맹
545,맛있어서 farm,"(농산물,청과물/농산물,청과물)",경기도 용인시 수지구 죽전동 1197-1번지,37.33146207,127.1235179,6229306150,2104,비가맹
546,아빠농장,"(농산물,청과물/농산물,청과물)","경기도 용인시 수지구 현암로89번길 14, 101호 (죽전동)",,,7869100908,2104,비가맹
547,가락회수산,(일반음식점/일반음식점),경기도 용인시 수지구 신봉동 772-4번지,37.32467447,127.0730308,2151327009,2301,비가맹
548,미니어처 컴퍼니,(커피전문점/커피전문점),경기도 용인시 수지구 죽전동 1177-3번지,37.33195437,127.1224317,5985600163,2502,비가맹
549,당신의 오후,(커피전문점/커피전문점),경기도 용인시 수지구 성복동 748번지 신봉샤르망3,37.31489313,127.0802299,5867700210,2502,비가맹
550,샬롱드슈,(일반음식점/일반음식점),경기도 용인시 수지구 상현동 1158-5번지,37.29750683,127.0806537,6226200147,2301,비가맹
551,자린고비,(일반음식점/일반음식점),경기도 용인시 수지구 이현로 128 (상현동),,,1351879394,2301,비가맹
552,롯데리아광교드라이브점,(패스트푸드점/패스트푸드점),"경기도 용인시 수지구 상현동 광교택지개발지구 위17블럭1,2층",,,1050360551,2307,비가맹
553,롯데리아(광교드라이브점),(패스트푸드점/패스트푸드점),경기도 용인시 수지구 상현동 광교택지개발지구위17b/1내근린생활시설,,,1050360551,2307,비가맹
554,볶신(BOXIN),(일반주점/일반주점),경기도 용인시 수지구 죽전동 1320-7번지,37.32293036,127.1249148,1420736970,2601,비가맹
555,피에스핏 (PS fit),(헬스클럽/헬스클럽),경기도 용인시 수지구 풍덕천동 709-1번지,37.32499915,127.0961901,8222901434,8305,비가맹
556,즐거운당구장,(당구장/당구장),경기도 용인시 수지구 풍덕천동 708-4번지,37.32430247,127.0954263,7682001063,8308,비가맹
557,당구25클럽,(당구장/당구장),경기도 용인시 수지구 풍덕천동 714번지,37.3242259,127.0967586,6143801155,8308,비가맹
558,모아당구클럽,(당구장/당구장),경기도 용인시 수지구 상현동 107-4번지,37.30936344,127.0765254,3730501260,8308,비가맹
559,보티브 플라워 부티크,(화원.화초/화원.화초),경기도 용인시 수지구 상현동 1118번지,37.29630812,127.068159,2910701093,8110,비가맹
560,예쁜약국,(약국/약국),경기도 용인시 수지구 신봉동 33번지,37.32317795,127.0779942,6481102539,4402,비가맹
561,죽전스타약국,(약국/약국),경기도 용인시 수지구 죽전동 1282번지,37.32532492,127.1100039,6631702296,4402,비가맹
562,캐슬프라자약국,(약국/약국),경기도 용인시 수지구 상현동 254-14번지,37.30676003,127.0846083,1290786462,4402,비가맹
563,엘 한의원,(한의원/한의원),경기도 용인시 수지구 상현동 1131-7번지,37.2968449,127.0695212,4109576630,4212,비가맹
564,씨유수지도서관점,(편의점/편의점),경기도 용인시 수지구 풍덕천동 1099-8번지,37.32028577,127.0938113,2920100358,5202,비가맹
565,키친 508,(일반음식점/일반음식점),경기도 용인시 수지구 상현동 12번지,37.31272029,127.0877805,1293614648,2301,가맹
566,GRAZ COFFEE LAB,(커피전문점/커피전문점),경기도 용인시 수지구 성복동 89번지,37.31341877,127.0787936,7258602533,2502,비가맹
567,에이스마트,"(농산물,청과물/농산물,청과물)",경기도 용인시 수지구 동천동 198번지,37.34110054,127.099615,1420555556,2104,비가맹
568,가나열쇠,(기타상품판매점/기타상품판매점),경기도 용인시 수지구 풍덕천동 91-3번지,37.32360444,127.0995611,1420866258,8112,비가맹
569,본죽 비빔밥 용인수지점,(일반음식점/일반음식점),경기도 용인시 수지구 풍덕천동 1080-9번지,37.32253617,127.0955487,2494400953,2301,비가맹
570,황제양꼬치 마라탕,(일반음식점/일반음식점),경기도 용인시 수지구 상현동 257-1번지,37.30849181,127.084926,2734201169,2301,비가맹
571,돈가네김치찌개 동천점,(일반음식점/일반음식점),경기도 용인시 수지구 동천동 145번지,37.34544225,127.0934613,3956200532,2301,비가맹
572,설국,(일반음식점/일반음식점),경기도 용인시 수지구 성복동 33-1번지,37.31074141,127.0812686,5927200016,2301,비가맹
573,몽까이,(일반음식점/일반음식점),경기도 용인시 수지구 동천동 935번지 한빛마을래미안이스트팰리스1단지,37.33693042,127.0874564,1351877173,2301,비가맹
574,유가네숯불촌,(일반음식점/일반음식점),경기도 용인시 수지구 풍덕천동 69-16번지,37.32508666,127.1007271,1302824796,2301,비가맹
575,사이드프로젝트(side project),(일반음식점/일반음식점),경기도 용인시 수지구 풍덕천동 522-2번지,37.31650822,127.0832342,2951500956,2301,비가맹
576,무등골,(일반음식점/일반음식점),경기도 용인시 수지구 풍덕천동 711번지,37.32405109,127.0957211,1420440207,2301,비가맹
577,또봉이통닭 단대점,(치킨전문점/치킨전문점),경기도 용인시 수지구 죽전동 1329번지,37.32406991,127.1232726,2944600205,2309,비가맹
578,경기동부인삼농협수지점,(건강보조식품/건강보조식품),경기도 용인시 수지구 성복동 89번지,37.31341877,127.0787936,1336800450,2201,비가맹
579,굿모닝점핑다이어트클럽,(건강보조식품/건강보조식품),경기도 용인시 수지구 성복동 748-2번지 신봉샤르망1,37.31471462,127.0807275,1420817738,2201,비가맹
580,튼튼영어베이비리그용인수지센터,"(입시학원,보습학원/입시학원,보습학원)",경기도 용인시 수지구 성복동 89번지,37.31341877,127.0787936,1239219317,7201,비가맹
581,온더로드,(일반의류/일반의류),경기도 용인시 수지구 죽전동 1245-9번지,37.32690557,127.1192965,7251100686,1106,비가맹
582,(주)통닭,(치킨전문점/치킨전문점),경기도 용인시 수지구 동천동 884-4번지,37.33335478,127.0961228,1175800615,2309,비가맹
583,T-스테이션(서수지점),(자동차정비/자동차정비),경기도 용인시 수지구 상현동 193-16,37.30688341,127.0750948,1351813335,6502,비가맹
584,희가원,(일반음식점/일반음식점),경기도 용인시 수지구 성복동 359-10번지,37.32370564,127.0595484,7710101530,2301,비가맹
585,우도갈비 막국수,(일반음식점/일반음식점),경기도 용인시 수지구 신봉동 888-5번지,37.32136157,127.0843361,4351501683,2301,가맹
586,디바인영어학원,"(입시학원,보습학원/입시학원,보습학원)",경기도 용인시 수지구 상현동 1131-5번지,37.2973593,127.0696875,1429096117,7201,비가맹
587,나음(NAUM)에듀케이션학원,"(입시학원,보습학원/입시학원,보습학원)",경기도 용인시 수지구 풍덕천동 1082-13번지,37.32101015,127.0947668,7369900762,7201,비가맹
588,OK2스크린골프,(골프연습장/골프연습장),경기도 용인시 수지구 죽전동 1197-1번지,37.33146207,127.1235179,1420628662,8309,비가맹
589,어반힐 골프아카데미,(골프연습장/골프연습장),경기도 용인시 수지구 신봉동 967번지,37.32794718,127.0682489,3022800555,8309,비가맹
590,더핏플러스스튜디오,(기타교육.교습.학원/기타교육.교습.학원),경기도 용인시 수지구 동천동 348-2번지,37.33929531,127.0936074,1724100986,7213,비가맹
591,피노쇼콜라,(일반음식점/일반음식점),경기도 용인시 수지구 동천동 923번지 한빛마을래미안이스트팰리스4단지,37.33577493,127.0843921,6800601258,2301,비가맹
592,하이(Hi)24 동천점,(슈퍼마켓.마트/슈퍼마켓.마트),경기도 용인시 수지구 동천동 121-3번지,37.34539509,127.0928519,6027600271,5201,비가맹
593,플래뮤수지점미술학원,(예체능계열학원/예체능계열학원),경기도 용인시 수지구 동천동 946-8번지,37.33544466,127.0904899,2599300754,7205,비가맹
594,애플음악학원,(예체능계열학원/예체능계열학원),경기도 용인시 수지구 풍덕천동 509-1번지,37.31630373,127.0866098,1999000937,7205,비가맹
595,주니어 4B미술학원,(예체능계열학원/예체능계열학원),경기도 용인시 수지구 상현동 263번지,37.3064742,127.0853547,2749500285,7205,비가맹
596,스핀(주),(예체능계열학원/예체능계열학원),경기도 용인시 수지구 상현동 1131-8번지,37.29656527,127.0694664,4268502212,7205,비가맹
597,파인트리뮤직아카데미학원,(예체능계열학원/예체능계열학원),경기도 용인시 수지구 상현동 254-14번지,37.30676003,127.0846083,2119505601,7205,가맹
598,보영만두용인수지점,(일반음식점/일반음식점),경기도 용인시 수지구 풍덕천동 1080-15번지,37.32187543,127.0947508,8543900256,2301,비가맹
599,지니하우스,(미용실(두발전문)/미용실(두발전문)),경기도 용인시 수지구 풍덕천동 1047-1번지,37.31994,127.0876621,1292674012,1602,비가맹
600,커피 이십센치,(커피전문점/커피전문점),경기도 용인시 수지구 상현동 1117-5번지,37.29733798,127.068785,8934000878,2502,비가맹
601,밀리언커피,(식음료(기타)/식음료(기타)),경기도 용인시 수지구 죽전동 1491번지,37.31941204,127.132607,1072124462,2310,비가맹
602,에스오커피(SOCOFFEE),(식음료(기타)/식음료(기타)),경기도 용인시 수지구 풍덕천동 699번지 한국아파트,37.32398255,127.09413,3726700081,2310,비가맹
603,베스트벨리 수지점,"(기타레저,스포츠용품/기타레저,스포츠용품)",경기도 용인시 수지구 풍덕천동 716-2번지,37.32428459,127.0981127,3820801324,8105,비가맹
604,세븐티나인골프,(전문스포츠용품점/전문스포츠용품점),경기도 용인시 수지구 죽전동 581-6번지,37.33455335,127.1149683,8751601665,8121,비가맹
605,세븐일레븐 수지거묵점,(편의점/편의점),경기도 용인시 수지구 풍덕천동 1049-1번지,37.31968797,127.0877651,3106400573,5202,비가맹
606,오티오르,(피부.체형미관리/피부.체형미관리),경기도 용인시 수지구 상현동 1117-5번지,37.29733798,127.068785,3691301290,1701,비가맹
607,필라테스 희,(기타취미.레저.스포츠/기타취미.레저.스포츠),경기도 용인시 수지구 죽전동 484-9번지,37.32861103,127.1142988,3900102529,8310,비가맹
608,함스케어연구소(HAMsCAR,(기타취미.레저.스포츠/기타취미.레저.스포츠),경기도 용인시 수지구 동천동 873-4번지,37.33566194,127.0933786,1420838179,8310,비가맹
609,카운터복싱짐,(무수도장 등(학원)/무수도장 등(학원)),경기도 용인시 수지구 동천동 371-5번지,37.34039418,127.0986478,1499401360,7204,비가맹
610,용인대 태풍 태권도장,(무수도장 등(학원)/무수도장 등(학원)),경기도 용인시 수지구 상현동 252번지,37.30608423,127.0846797,3499500221,7204,비가맹
611,선후합기도,(무수도장 등(학원)/무수도장 등(학원)),경기도 용인시 수지구 동천동 282번지,37.33328155,127.0931657,8049001718,7204,가맹
612,동천힘수학학원,"(입시학원,보습학원/입시학원,보습학원)",경기도 용인시 수지구 동천동 948번지,37.33597205,127.0918191,4309601557,7201,가맹
613,세렌디피티 바버샵,(이발소/이발소),경기도 용인시 수지구 죽전동 1173-4번지,37.33201457,127.1187176,4162662671,1601,비가맹
614,숀앤팍미용실,(미용실(두발전문)/미용실(두발전문)),경기도 용인시 수지구 성복동 33-5번지,37.31071617,127.0817766,6033019173,1602,비가맹
615,별똥구리,(일반음식점/일반음식점),경기도 용인시 수지구 고기동 344-4번지,37.35104757,127.0531222,7671201328,2301,비가맹
616,퀼트앤데코,(기타잡화/기타잡화),경기도 용인시 수지구 상현동 557-1성원쌍떼빌단지내상가206,,,1351479057,1401,비가맹
617,애플,(기타잡화/기타잡화),경기도 용인시 수지구 풍덕천동 715-2번지,37.3246253,127.0975804,1351614612,1401,비가맹
618,잉글리쉬래더학원,(외국어학원/외국어학원),경기도 용인시 수지구 풍덕천동 1082-9번지,37.32139139,127.0955435,1099733749,7202,비가맹
619,커피브레이크(coffwwbre,(커피전문점/커피전문점),경기도 용인시 수지구 풍덕천동 1047-3번지,37.31986045,127.088114,7903200540,2502,비가맹
620,위드(with),(커피전문점/커피전문점),경기도 용인시 수지구 신봉동 670-6번지,37.33372465,127.0488111,1420902436,2502,비가맹
621,삼성영어죽전영어교습소,(기타교육.교습.학원/기타교육.교습.학원),경기도 용인시 수지구 죽전동 513-11번지 에덴원룸,37.33290869,127.1109467,6639700534,7213,비가맹
622,비에이치씨(BHC)수지상현중앙점,(치킨전문점/치킨전문점),경기도 용인시 수지구 상현동 252번지,37.30608423,127.0846797,2470701534,2309,비가맹
623,페리카나 상현점,(치킨전문점/치킨전문점),경기도 용인시 수지구 상현동 254-14번지,37.30676003,127.0846083,6533800904,2309,비가맹
624,홍춘,(중식전문점/중식전문점),경기도 용인시 수지구 죽전동 1336-6번지,37.32420494,127.1260598,1420757131,2302,비가맹
625,미스터고영어교습소,(기타교육.교습.학원/기타교육.교습.학원),경기도 용인시 수지구 신봉동 33번지,37.32317795,127.0779942,8149500521,7213,비가맹
626,더블유(W)필라테스 죽전점,(기타교육.교습.학원/기타교육.교습.학원),경기도 용인시 수지구 죽전동 1177-2번지,37.33196227,127.1220818,1592001575,7213,비가맹
627,미니스톱(용인동천점),(편의점/편의점),경기도 용인시 수지구 동천동 862번지,37.33916225,127.0968707,1420694686,5202,비가맹
628,제이진옴므,(양복점.한복점/양복점.한복점),경기도 용인시 수지구 풍덕천동 1195번지 수지푸르지오월드마크,37.32360868,127.1008139,1420970555,1101,비가맹
629,키즈키즈,(교육및교구/교육및교구),"경기도 용인시 수지구 용구대로 2791, A동 404호-405호 (죽전동,남곡종중건물)",,,1299196692,7303,비가맹
630,블루밍헤어,(미용실(두발전문)/미용실(두발전문)),경기도 용인시 수지구 죽전동 952번지,37.33500456,127.1041966,1420950433,1602,비가맹
631,살롱드연우,(미용실(두발전문)/미용실(두발전문)),경기도 용인시 수지구 죽전동 1259-3번지,37.32590224,127.1184325,5481401624,1602,비가맹
632,올빼미카워시,(세차장/세차장),경기도 용인시 수지구 동천동 117-9번지,37.34677056,127.0917945,2340701504,6702,비가맹
633,헤밍웨이컬렉션,(가구판매점/가구판매점),경기도 용인시 수지구 죽전동 1291번지,37.32446232,127.1053919,1441401738,3301,비가맹
634,흙표흙침대용인점,(가구판매점/가구판매점),경기도 용인시 수지구 풍덕천동 684-5번지,37.33106777,127.1021854,1420993427,3301,비가맹
635,수리수리모터스,(자동차정비/자동차정비),경기도 용인시 수지구 동천동 881-8번지,37.33403642,127.0951258,1420721671,6502,비가맹
636,죽전점 오토오아시스,(자동차정비/자동차정비),경기도 용인시 수지구 죽전동 1253-1번지,37.32936929,127.1174103,1420258023,6502,비가맹
637,매일소풍,(일반음식점/일반음식점),경기도 용인시 수지구 풍덕천동 681-6번지,37.33124761,127.0993851,6774100399,2301,비가맹
638,에라토 커피,(커피전문점/커피전문점),경기도 용인시 수지구 고기동 248-3번지,37.35805447,127.0539614,8521101594,2502,비가맹
639,엘르헤어(정평로점),(미용실(두발전문)/미용실(두발전문)),경기도 용인시 수지구 풍덕천동 1018번지,37.32215503,127.0895687,8460400267,1602,비가맹
640,26도헤어 상현역점,(미용실(두발전문)/미용실(두발전문)),경기도 용인시 수지구 상현동 1117-3번지,37.29781616,127.0689064,1920201748,1602,비가맹
641,더블유 네일,(피부.체형미관리/피부.체형미관리),경기도 용인시 수지구 상현동 1116번지,37.29849985,127.0685301,1102276546,1701,비가맹
642,한성헤어,(미용실(두발전문)/미용실(두발전문)),경기도 용인시 수지구 풍덕천동 698-2번지,37.32496287,127.0934927,5552801750,1602,비가맹
643,구들장흑도야지,(일반음식점/일반음식점),경기도 용인시 수지구 죽전동 1343-1번지,37.3262569,127.125045,5111301270,2301,비가맹
644,와인비 바,(일반주점/일반주점),경기도 용인시 수지구 동천동 937번지,37.33730454,127.0887638,7330402450,2601,가맹
645,고은푸드서비스,(기타음식점/기타음식점),경기도 용인시 수지구 죽전동 168번지,37.32967764,127.1236171,8382900221,2401,비가맹
646,바로담다,(일식전문점/일식전문점),경기도 용인시 수지구 상현동 1220번지,37.30030383,127.0713407,7528501621,2303,비가맹
647,씨유(CU) 수지성현점,(편의점/편의점),경기도 용인시 수지구 죽전동 1235번지 성현마을반도유보라,37.32631935,127.1220084,4770701979,5202,비가맹
648,지에스25 시그니처광교,(편의점/편의점),경기도 용인시 수지구 상현동 1184번지,37.30170266,127.0643933,6322801232,5202,비가맹
649,와이블랙 죽전점,(커피전문점/커피전문점),경기도 용인시 수지구 죽전동 1177-4번지,37.33196464,127.1228268,5390402799,2502,비가맹
650,닥치고곱창,(일반음식점/일반음식점),경기도 용인시 수지구 성복동 33-1번지,37.31074141,127.0812686,2992000796,2301,비가맹
651,스시도담,(일식전문점/일식전문점),경기도 용인시 수지구 죽전동 1197-1번지,37.33146207,127.1235179,6242301027,2303,비가맹
652,씨유광교늘봄병원점,(편의점/편의점),경기도 용인시 수지구 상현동 1186번지,37.30107713,127.065875,1543800300,5202,비가맹
653,상현역에듀플렉스심리상담연구소,(기타서비스/기타서비스),경기도 용인시 수지구 상현동 1117-5번지,37.29733798,127.068785,5119542355,9602,비가맹
654,에스엠천사,(기타서비스/기타서비스),경기도 용인시 수지구 성복동 33-1번지,37.31074141,127.0812686,6049300560,9602,비가맹
655,두마리찜닭두찜용인상현점,(일반음식점/일반음식점),경기도 용인시 수지구 상현동 843번지,37.30844103,127.0833013,6216000742,2301,비가맹
656,쿤스트(Kunst),(일반음식점/일반음식점),경기도 용인시 수지구 상현동 1161-4번지,37.29577443,127.0801669,8627900419,2301,비가맹
657,쪽갈비에미치닭,(치킨전문점/치킨전문점),경기도 용인시 수지구 죽전동 1115번지,37.32905862,127.1161138,4710500871,2309,비가맹
658,비비큐신풍덕천점,(치킨전문점/치킨전문점),경기도 용인시 수지구 풍덕천동 1047-1번지,37.31994,127.0876621,6891801262,2309,비가맹
659,비에이치씨(BHC)수지신봉점,(치킨전문점/치킨전문점),경기도 용인시 수지구 신봉동 50-2번지,37.32310353,127.0798795,8851901912,2309,비가맹
660,브라우니30 (성복점),(제과.제빵/제과.제빵),경기도 용인시 수지구 성복동 33-1번지,37.31074141,127.0812686,3841300591,2501,비가맹
661,동천철물건재,(기타건축자재/기타건축자재),경기도 용인시 수지구 동천동 47-1번지,37.35113061,127.08328,1292390802,3403,비가맹
662,유로코스메틱,(화장품/화장품),경기도 용인시 수지구 상현동 252번지,37.30608423,127.0846797,1420981294,1501,비가맹
663,2nd 에일린,(화장품/화장품),경기도 용인시 수지구 상현동 861번지,37.30556429,127.0854951,2121256755,1501,비가맹
664,글로벌,(화장품/화장품),경기도 용인시 수지구 죽전동 589-24번지,37.33330722,127.1115317,1371177850,1501,가맹
665,수피아스킨케어,(화장품/화장품),경기도 용인시 수지구 풍덕천2동 1168 진산마을삼성5차단지내상가제1동2층 209,,,1262279761,1501,비가맹
666,티에이케이(TAK)학원,"(입시학원,보습학원/입시학원,보습학원)",경기도 용인시 수지구 풍덕천동 710번지,37.32455825,127.0964182,5779901575,7201,비가맹
667,글로비랭(Glo.Be_Lang),(기타교육.교습.학원/기타교육.교습.학원),경기도 용인시 수지구 동천동 164-4번지 동천센트럴자이,37.34131317,127.0932465,6029422963,7213,비가맹
668,토리키치 용인신봉점,(일반음식점/일반음식점),경기도 용인시 수지구 신봉동 40-2번지,37.32362315,127.0764567,8747800434,2301,비가맹
669,브릭제로나인,(식음료(기타)/식음료(기타)),경기도 용인시 수지구 죽전동 811번지,37.33442747,127.1095617,2033781141,2310,비가맹
670,주식회사웹호스트,(기타서비스/기타서비스),경기도 용인시 수지구 풍덕천동 691번지,37.32785188,127.0922016,5148136781,9602,비가맹
671,이지워시셀프빨래방 상현점,(기타서비스/기타서비스),경기도 용인시 수지구 상현동 108-1번지 대진아파트,37.30866958,127.0765857,7151101558,9602,비가맹
672,메이즈 잉글이쉬 북눅,(기타교육.교습.학원/기타교육.교습.학원),경기도 용인시 수지구 죽전동 1003-8번지 현암마을동성2차아파트,37.32803067,127.1104865,5469601167,7213,비가맹
673,앤티베이커리,(제과.제빵/제과.제빵),경기도 용인시 수지구 상현동 1220번지,37.30030383,127.0713407,8101501263,2501,비가맹
674,지에스25 광교웅진점,(편의점/편의점),경기도 용인시 수지구 상현동 1107번지 광교마을46단지광교스타클래스,37.30068297,127.0739901,4111862517,5202,비가맹
675,GS25 신봉자이점,(편의점/편의점),경기도 용인시 수지구 신봉동 39-2번지,37.32354707,127.0778679,1420166910,5202,비가맹
676,GS25신봉자이점,(편의점/편의점),경기도 용인시 수지구 신봉동 39-2번지,37.32354707,127.0778679,1420166910,5202,비가맹
677,슈퍼키친 신봉점,(식음료(기타)/식음료(기타)),경기도 용인시 수지구 신봉동 969번지,37.32779535,127.0686336,2104251921,2310,가맹
678,퍼플스터디카페수지센터,(기타장비임대/기타장비임대),경기도 용인시 수지구 신봉동 33번지,37.32317795,127.0779942,1521501167,3503,비가맹
679,조수아헤어맘,(미용실(두발전문)/미용실(두발전문)),경기도 용인시 수지구 상현동 860번지,37.30833603,127.0816431,5080306834,1602,비가맹
680,가은인테리어,(실내장식(인테리어)/실내장식(인테리어)),경기도 용인시 수지구 풍덕천동 729-7번지 1동,37.32521828,127.0996654,1063128237,3405,비가맹
681,다다,(기타가정.주방용품/기타가정.주방용품),경기도 용인시 수지구 상현동 252번지,37.30608423,127.0846797,7915200105,3302,비가맹
682,네일쥬르,(피부.체형미관리/피부.체형미관리),경기도 용인시 수지구 죽전동 1191-5번지 죽전스카이프라자,37.33151434,127.1257865,7715200552,1701,비가맹
683,라보떼,(미용실(두발전문)/미용실(두발전문)),경기도 용인시 수지구 성복동 129-1번지,37.31589689,127.0735657,1420335541,1602,비가맹
684,루니살롱,(미용실(두발전문)/미용실(두발전문)),경기도 용인시 수지구 신봉동 40-2번지,37.32362315,127.0764567,3061417013,1602,비가맹
685,형님칼제비,(일반음식점/일반음식점),경기도 용인시 수지구 고기동 215-6번지,37.3589012,127.0538096,2941802006,2301,비가맹
686,전주콩나물국밥,(일반음식점/일반음식점),경기도 용인시 수지구 동천동 180-5번지,37.34164738,127.1013958,2730502708,2301,비가맹
687,공차 수지상현점,(일반음식점/일반음식점),경기도 용인시 수지구 상현동 252번지,37.30608423,127.0846797,4913901205,2301,비가맹
688,메이저스포츠아카데미,(기타취미.레저.스포츠/기타취미.레저.스포츠),경기도 용인시 수지구 죽전동 1254-3번지,37.32846913,127.1150106,6952500024,8310,비가맹
689,용인대에이스복싱클럽,(기타취미.레저.스포츠/기타취미.레저.스포츠),경기도 용인시 수지구 동천동 942-4번지,37.33720829,127.0922075,1429006288,8310,비가맹
690,모던필라테스 용인상현점,(기타취미.레저.스포츠/기타취미.레저.스포츠),경기도 용인시 수지구 상현동 254-14번지,37.30676003,127.0846083,6624600335,8310,비가맹
691,공 때리는 언니들,(기타취미.레저.스포츠/기타취미.레저.스포츠),경기도 용인시 수지구 신봉동 650-1번지,37.33255009,127.0504549,7985800597,8310,비가맹
692,(주) 볼더메이트수지,(기타취미.레저.스포츠/기타취미.레저.스포츠),경기도 용인시 수지구 풍덕천동 1080-20번지,37.32197902,127.0960483,3358603251,8310,비가맹
693,아로스토(arrosto),(패스트푸드점/패스트푸드점),경기도 용인시 수지구 고기동 220번지,37.36052034,127.0577185,5540601018,2307,비가맹
694,Cafe Josh (카페 조쉬),(일반음식점/일반음식점),경기도 용인시 수지구 성복동 558번지,37.32477779,127.0545984,7211300859,2301,비가맹
695,다정식당,(일반음식점/일반음식점),경기도 용인시 수지구 풍덕천동 680-5번지,37.33173443,127.099405,1350877043,2301,비가맹
696,미라클스터디카페 용인죽전센터,(기타교육.교습.학원/기타교육.교습.학원),경기도 용인시 수지구 죽전동 1190-1번지,37.33148042,127.126464,7312701890,7213,비가맹
697,네네치킨죽전1호점,(치킨전문점/치킨전문점),경기도 용인시 수지구 죽전동 1259-3번지,37.32590224,127.1184325,1050279918,2309,비가맹
698,아이스걸크림보이(용인수지점),(아이스크림전문점/아이스크림전문점),경기도 용인시 수지구 풍덕천동 193-12번지,37.31985739,127.0977074,3632301404,2503,비가맹
699,편백회관,(일반음식점/일반음식점),경기도 용인시 수지구 동천동 411번지,37.33814986,127.0907913,2020653236,2301,비가맹
700,옛날경성순대국수지구청역점,(일반음식점/일반음식점),경기도 용인시 수지구 풍덕천동 1082-10번지,37.32130961,127.0953521,4140853624,2301,비가맹
701,감미옥,(일반음식점/일반음식점),경기도 용인시 수지구 죽전동 437번지,37.32630017,127.1132834,3070944106,2301,가맹
702,별난아재맥주,(일반음식점/일반음식점),경기도 용인시 수지구 동천동 105-3번지 동천자이아파트,37.34588402,127.0908735,5215200845,2301,가맹
703,수지신봉동삼겹살맛집88892(팔팔팔구이),(일반음식점/일반음식점),경기도 용인시 수지구 신봉동 888-1번지,37.32143106,127.0835908,6723501335,2301,비가맹
704,우지커피 수지구청역점,(커피전문점/커피전문점),경기도 용인시 수지구 풍덕천동 1080-9번지,37.32253617,127.0955487,1304760454,2502,가맹
705,예일꽃화원,(화원.화초/화원.화초),경기도 용인시 수지구 풍덕천동 102-7번지,37.32303883,127.10023,1359928763,8110,가맹
706,스토리피아노음악학원,(예체능계열학원/예체능계열학원),"경기도 용인시 수지구 죽전동 1151번지 인현마을힐스테이트7차아파트 상가2동 201,202호",37.33169391,127.1115851,4169899059,7205,비가맹
707,라라발레학원,(예체능계열학원/예체능계열학원),경기도 용인시 수지구 동천동 121-3번지,37.34539509,127.0928519,6439201437,7205,가맹
708,아이피플미술학원,(예체능계열학원/예체능계열학원),경기도 용인시 수지구 신봉동 949번지 신봉마을동부센트레빌5단지,37.33091455,127.0662791,3449300595,7205,가맹
709,남영스파랜드 스포츠마사지실,(기타대인서비스/기타대인서비스),경기도 용인시 수지구 동천동 171-1 남영스파랜드 내,37.34273192,127.0970885,1420122402,8406,가맹
710,매머드익스프레스내대지마을점,(커피전문점/커피전문점),경기도 용인시 수지구 죽전동 1188-1번지,37.33195808,127.126439,5034595161,2502,가맹
711,채플린노래연습장,(노래방/노래방),경기도 용인시 수지구 신봉동 82-4번지,37.32425758,127.0774238,1824500598,8402,가맹
712,와썹코인,(노래방/노래방),경기도 용인시 수지구 풍덕천동 709-3번지,37.32479176,127.0961686,1360468840,8402,가맹
713,에스티(ST)과학,(기타교육.교습.학원/기타교육.교습.학원),경기도 용인시 수지구 신봉동 33번지,37.32317795,127.0779942,2152622590,7213,비가맹
714,원더팔레트,(기타교육.교습.학원/기타교육.교습.학원),경기도 용인시 수지구 성복동 168-10번지 성복역서희스타힐스,37.31568138,127.0712985,6707300292,7213,가맹
715,라스에듀(L A S EDU),(기타교육.교습.학원/기타교육.교습.학원),경기도 용인시 수지구 성복동 771번지 버들치마을성복힐스테이트1차,37.31432842,127.0710579,3849801170,7213,비가맹
716,온영어교습소,(기타교육.교습.학원/기타교육.교습.학원),경기도 용인시 수지구 동천동 282번지,37.33328155,127.0931657,6149900953,7213,가맹
717,M.at.H,(기타교육.교습.학원/기타교육.교습.학원),경기도 용인시 수지구 풍덕천동 1065번지 용인수지신정마을1단지,37.32106227,127.0915724,7309500053,7213,비가맹
718,등촌샤브칼국수 신봉점,(일반음식점/일반음식점),경기도 용인시 수지구 신봉동 964-1번지,37.32836951,127.0678853,1720402562,2301,가맹
719,라이또PC방 수지동천점,(오락실/PC방/오락실/PC방),경기도 용인시 수지구 동천동 946-4번지,37.33588699,127.0906794,1471201261,8401,비가맹
720,BUNNY S BOOK CLUB,(기타오락.휴식시설/기타오락.휴식시설),경기도 용인시 수지구 동천동 923번지 한빛마을래미안이스트팰리스4단지,37.33577493,127.0843921,1791601999,8202,비가맹
721,씨유(CU) 신봉자이점,(편의점/편의점),경기도 용인시 수지구 신봉동 912번지 신봉마을자이3차,37.32092388,127.0778262,2924500594,5202,가맹
722,고등어학원,"(입시학원,보습학원/입시학원,보습학원)",경기도 용인시 수지구 상현동 1127-1번지,37.29883332,127.0734928,3109341822,7201,가맹
723,위어스영어학원,"(입시학원,보습학원/입시학원,보습학원)",경기도 용인시 수지구 상현동 259번지,37.30737593,127.0854513,7359102024,7201,가맹
724,고고식당,(일반음식점/일반음식점),경기도 용인시 수지구 풍덕천동 239-3번지,37.31565848,127.0876855,4372001140,2301,가맹
725,충남 방앗간,(기타식음료품/기타식음료품),경기도 용인시 수지구 풍덕천동 729-16번지,37.32501104,127.0996891,1350942594,2105,가맹
726,치즈블리스 1995,(기타식음료품/기타식음료품),경기도 용인시 수지구 성복동 89번지,37.31341877,127.0787936,7851502480,2105,가맹
727,Noniin,(일반음식점/일반음식점),경기도 용인시 수지구 풍덕천동 677-2번지,37.33205536,127.1010175,7872101760,2301,가맹
728,또랑,(일반음식점/일반음식점),경기도 용인시 수지구 신봉동 43-3번지,37.3240163,127.0780121,7350502375,2301,가맹
729,설수지학원,"(입시학원,보습학원/입시학원,보습학원)",경기도 용인시 수지구 풍덕천동 1082-11번지,37.32119174,127.0951495,5489501701,7201,가맹
730,1프로학원,"(입시학원,보습학원/입시학원,보습학원)",경기도 용인시 수지구 성복동 289-6번지,37.31779827,127.0684424,6509900191,7201,비가맹
731,서울경희한의원,(한의원/한의원),경기도 용인시 수지구 풍덕천동 193-8번지,37.3201471,127.0980783,1359131786,4212,가맹
732,연세W치과의원,(치과/치과),경기도 용인시 수지구 죽전동 1254-3번지,37.32846913,127.1150106,1420892979,4201,가맹
733,이플러스치과,(치과/치과),경기도 용인시 수지구 풍덕천동 1080-9번지,37.32253617,127.0955487,1420892590,4201,가맹
734,다인아트치과의원,(치과/치과),경기도 용인시 수지구 상현동 1119-1번지,37.29905211,127.0691927,8610203139,4201,가맹
735,이알씨(ERC)어학원,"(입시학원,보습학원/입시학원,보습학원)",경기도 용인시 수지구 상현동 254-14번지,37.30676003,127.0846083,3689400017,7201,가맹
736,동천한솔플러스학원,"(입시학원,보습학원/입시학원,보습학원)",경기도 용인시 수지구 동천동 344-2번지,37.33797659,127.0928242,1359110331,7201,가맹
737,(주)루웰,(기타약품.의료기기/기타약품.의료기기),경기도 용인시 수지구 죽전동 347-2번지,37.32644522,127.1163077,7648801469,4501,비가맹
738,(주)라미가,(일반음식점/일반음식점),경기도 용인시 수지구 신봉동 40-2번지,37.32362315,127.0764567,2878101788,2301,비가맹
739,빽다방수지구청점,(커피전문점/커피전문점),경기도 용인시 수지구 풍덕천동 717-3번지,37.32388584,127.0974828,8370301703,2502,가맹
740,샤브나리,(일반음식점/일반음식점),경기도 용인시 수지구 신봉동 940-3번지,37.32920174,127.0711765,5374000376,2301,가맹
741,시온성,(일반음식점/일반음식점),경기도 용인시 수지구 상현동 1132번지,37.29820056,127.0705064,1301330014,2301,가맹
742,로에이브헤어,(미용실(두발전문)/미용실(두발전문)),경기도 용인시 수지구 동천동 942-1번지,37.33757797,127.0922394,4112623329,1602,가맹
743,도도한 상점,(인터넷상거래/인터넷상거래),경기도 용인시 수지구 성복동 33-1번지,37.31074141,127.0812686,8624600425,5501,가맹
744,여성전용PT투프로짐,(헬스클럽/헬스클럽),경기도 용인시 수지구 성복동 33-1번지,37.31074141,127.0812686,8672401295,8305,가맹
745,메디스포유,(헬스클럽/헬스클럽),경기도 용인시 수지구 신봉동 145-1번지,37.32802813,127.0731698,4125300209,8305,가맹
746,플룻앤피아노,(예체능계열학원/예체능계열학원),경기도 용인시 수지구 상현동 866 상현마을 성원3차상떼빌@단지내상가 2층 208호 207,,,1359091851,7205,비가맹
747,라비체음악교습소,(기타교육.교습.학원/기타교육.교습.학원),경기도 용인시 수지구 상현동 66-9번지,37.30887165,127.0852851,6529101899,7213,가맹
748,수지파워점핑,(기타교육.교습.학원/기타교육.교습.학원),경기도 용인시 수지구 풍덕천동 697-6번지,37.32270657,127.0926696,1109507397,7213,가맹
749,플레잉아트센터,(예체능계열학원/예체능계열학원),경기도 용인시 수지구 상현동 254-14번지,37.30676003,127.0846083,2139008365,7205,가맹
750,피앤아이뮤직학원,(예체능계열학원/예체능계열학원),경기도 용인시 수지구 죽전동 472-5번지,37.32683212,127.1133259,2269509536,7205,가맹
751,동천피아노슐레학원,(예체능계열학원/예체능계열학원),경기도 용인시 수지구 동천동 344-2번지,37.33797659,127.0928242,1719601264,7205,비가맹
752,피아노선율음악학원,(예체능계열학원/예체능계열학원),경기도 용인시 수지구 동천동 870번지,37.33600692,127.0967295,2099472721,7205,가맹
753,4B미술학원,(예체능계열학원/예체능계열학원),경기도 용인시 수지구 상현동 254-14번지,37.30676003,127.0846083,6279501678,7205,가맹
754,최배달떡순튀,(일반음식점/일반음식점),경기도 용인시 수지구 죽전동 548번지,37.33171379,127.1121495,6111167485,2301,가맹
755,남규나 탁구클럽,(기타취미.레저.스포츠/기타취미.레저.스포츠),경기도 용인시 수지구 상현동 259번지,37.30737593,127.0854513,3620100244,8310,가맹
756,카인드요가,(기타취미.레저.스포츠/기타취미.레저.스포츠),경기도 용인시 수지구 상현동 95-5번지 라임카운티,37.30933183,127.080306,8753400369,8310,비가맹
757,신통치킨,(치킨전문점/치킨전문점),경기도 용인시 수지구 동천동 105-3번지 동천자이아파트 상가동 에이.138호,37.34608267,127.090974,3903601347,2309,가맹
758,지코바치킨 성복1호점,(치킨전문점/치킨전문점),경기도 용인시 수지구 성복동 33-5번지,37.31071617,127.0817766,6704300752,2309,가맹
759,더힐발레스튜디오,(예체능계열학원/예체능계열학원),경기도 용인시 수지구 상현동 351-1번지,37.30376903,127.0749093,5122001719,7205,가맹
760,발도르프 음악학원,(예체능계열학원/예체능계열학원),경기도 용인시 수지구 동천동 946-4번지,37.33588699,127.0906794,6779401429,7205,가맹
761,픽스버거,(일반음식점/일반음식점),경기도 용인시 수지구 동천동 371-5번지,37.34039418,127.0986478,6173905967,2301,가맹
762,(주)현대막국수,(일반음식점/일반음식점),경기도 용인시 수지구 신봉동 637-2번지,37.33351533,127.0530342,4168800862,2301,비가맹
763,아소비교육,(기타교육.교습.학원/기타교육.교습.학원),경기도 용인시 수지구 신봉동 960번지 광교산자이,37.32812858,127.0710359,3269000989,7213,비가맹
764,예뜨락미술교습소,(기타교육.교습.학원/기타교육.교습.학원),경기도 용인시 수지구 풍덕천1동 699-113 한국아파트 상가 113,,,1359043271,7213,비가맹
765,도토리아트미술교습소,(기타교육.교습.학원/기타교육.교습.학원),경기도 용인시 수지구 성복동 814번지 성복역롯데캐슬파크나인,37.31118804,127.0750707,6669101812,7213,가맹
766,차선생 수학 교습소,(기타교육.교습.학원/기타교육.교습.학원),경기도 용인시 수지구 상현동 252번지,37.30608423,127.0846797,1599801536,7213,가맹
767,플로우영어독서학원(성복지점),(외국어학원/외국어학원),경기도 용인시 수지구 성복동 139번지,37.3157925,127.0746159,8998502690,7202,가맹
768,어우동,(일반음식점/일반음식점),경기도 용인시 수지구 죽전동 510-4번지,37.33163738,127.1108404,1351485826,2301,가맹
769,더도어즈골프,(골프연습장/골프연습장),경기도 용인시 수지구 상현동 1116번지,37.29849985,127.0685301,1813600948,8309,가맹
770,브리딘 필라테스 수지성복점,(기타취미.레저.스포츠/기타취미.레저.스포츠),경기도 용인시 수지구 성복동 723번지 성남마을벽산첼시빌2차아파트,37.31417267,127.0654273,4660502275,8310,가맹
771,필라테스 해듦,(기타취미.레저.스포츠/기타취미.레저.스포츠),경기도 용인시 수지구 성복동 814번지 성복역롯데캐슬파크나인,37.31118804,127.0750707,8445600896,8310,가맹
772,카툰명가(수지점),(기타오락.휴식시설/기타오락.휴식시설),경기도 용인시 수지구 상현동 254-14번지,37.30676003,127.0846083,6042526580,8202,비가맹
773,해수사우나,(사우나.목욕탕.찜질방/사우나.목욕탕.찜질방),경기도 용인시 수지구 풍덕천동 703번지 동보아파트상가 에이동 지하 1층,37.32619081,127.0967255,1420450893,8405,가맹
774,민트헤어,(미용실(두발전문)/미용실(두발전문)),경기도 용인시 수지구 풍덕천동 693번지,37.32594987,127.0895707,7061700498,1602,가맹
775,살롱원,(미용실(두발전문)/미용실(두발전문)),경기도 용인시 수지구 신봉동 126-1번지,37.32518054,127.0733891,8044000505,1602,가맹
776,라미끄,(미용실(두발전문)/미용실(두발전문)),경기도 용인시 수지구 풍덕천동 1093-2번지,37.32148323,127.0934098,1920101760,1602,가맹
777,브라이트영어교습소,(기타교육.교습.학원/기타교육.교습.학원),경기도 용인시 수지구 풍덕천동 663-1번지,37.32969363,127.0930495,4279401654,7213,가맹
778,아트펀미술교습소,(기타교육.교습.학원/기타교육.교습.학원),경기도 용인시 수지구 신봉동 954-9번지,37.32921984,127.0687157,4519900857,7213,비가맹
779,용두동쭈꾸미(수지),(일반음식점/일반음식점),경기도 용인시 수지구 풍덕천동 670-1번지,37.33267223,127.0995129,1681301998,2301,가맹
780,조유미수학,(기타교육.교습.학원/기타교육.교습.학원),경기도 용인시 수지구 상현동 832번지 상현마을금호베스트빌2단지,37.30312418,127.0811303,3399900125,7213,가맹
781,요나잉글리쉬학원,(기타교육.교습.학원/기타교육.교습.학원),경기도 용인시 수지구 성복동 819번지 성복역롯데캐슬클라시엘,37.31371999,127.0723028,7869001628,7213,가맹
782,크리스마스미용실,(미용실(두발전문)/미용실(두발전문)),경기도 용인시 수지구 상현동 827번지,37.30423139,127.0807067,3872600682,1602,가맹
783,광교요리학원,(기술.직업훈력학원/기술.직업훈력학원),경기도 용인시 수지구 상현동 1117-2번지,37.29805081,127.068984,4119977552,7211,가맹
784,광교간호학원,(기술.직업훈력학원/기술.직업훈력학원),경기도 용인시 수지구 상현동 1131-5번지,37.2973593,127.0696875,1329902750,7211,비가맹
785,김유진 정신건강의학과,(신경정신과/신경정신과),경기도 용인시 수지구 상현동 1220번지,37.30030383,127.0713407,5949600833,4203,가맹
786,퍼플네일,(피부.체형미관리/피부.체형미관리),경기도 용인시 수지구 풍덕천동 712번지,37.32390552,127.0953269,1180968658,1701,가맹
787,린네일,(피부.체형미관리/피부.체형미관리),경기도 용인시 수지구 동천동 937번지,37.33730454,127.0887638,1262676743,1701,가맹
788,양나나,(피부.체형미관리/피부.체형미관리),경기도 용인시 수지구 상현동 850번지,37.307088,127.0855995,2021510807,1701,가맹
789,CAFE NEWN,(커피전문점/커피전문점),경기도 용인시 수지구 동천동 725-37번지,37.34295477,127.0583522,8637400402,2502,비가맹
790,봉명동내커피 죽전구미점,(커피전문점/커피전문점),경기도 용인시 수지구 죽전동 1169-11번지,37.33204975,127.1184465,2760502444,2502,가맹
791,(주)나눔산업개발,(골프연습장/골프연습장),경기도 용인시 수지구 상현동 1133-1번지,37.29604309,127.0696386,6768800066,8309,비가맹
792,투온QED골프아카데미 수지죽전점,(골프연습장/골프연습장),경기도 용인시 수지구 죽전동 1254-3번지,37.32846913,127.1150106,4310502997,8309,가맹
793,리드인독서비상아이비츠학원,(외국어학원/외국어학원),경기도 용인시 수지구 성복동 409-1번지,37.31993867,127.0622001,8929000467,7202,가맹
794,광교새벽정신어학원,(외국어학원/외국어학원),경기도 용인시 수지구 상현동 1132번지,37.29820056,127.0705064,8769001616,7202,가맹
795,(주)대민,(기타전문서비스/기타전문서비스),경기도 용인시 수지구 동천동 403번지,37.33858832,127.092471,1428137891,9511,비가맹
796,마이프라나,(기타취미.레저.스포츠/기타취미.레저.스포츠),경기도 용인시 수지구 풍덕천동 1209번지 e편한세상수지,37.31534654,127.0861185,1266300627,8310,가맹
797,킴스헤어,(미용실(두발전문)/미용실(두발전문)),경기도 용인시 수지구 죽전동 1178-3번지,37.3319501,127.1239218,6067600235,1602,가맹
798,JK헤어브띠끄(JKHAIRB,(미용실(두발전문)/미용실(두발전문)),경기도 용인시 수지구 상현동 1158-6번지,37.29738949,127.0806093,1420947807,1602,가맹
799,수지 김안과의원,(안과/안과),경기도 용인시 수지구 풍덕천동 715-2번지,37.3246253,127.0975804,1420904166,4207,가맹
800,수지본내과의원,(내과/내과),경기도 용인시 수지구 상현동 106-8번지,37.30994743,127.0759917,1429056148,4202,가맹
801,한내과의원,(내과/내과),경기도 용인시 수지구 풍덕천동 193-8번지,37.3201471,127.0980783,1359066411,4202,가맹
802,리즈마스터,(일반의류/일반의류),경기도 용인시 수지구 상현동 1117-5번지,37.29733798,127.068785,2771002664,1106,가맹
803,피자스쿨 죽전점,(패스트푸드점/패스트푸드점),경기도 용인시 수지구 대지로 30 (죽전동),,,1420875121,2307,가맹
804,리엠(RI-M),(미용실(두발전문)/미용실(두발전문)),경기도 용인시 수지구 상현동 1129번지,37.30050496,127.074623,8810101007,1602,가맹
805,원픽미술학원,(예체능계열학원/예체능계열학원),경기도 용인시 수지구 신봉동 39번지,37.32359036,127.0773711,2539101805,7205,가맹
806,앤와이유 아름다운치과,(치과/치과),경기도 용인시 수지구 풍덕천동 1082-13번지,37.32101015,127.0947668,1359134560,4201,가맹
807,메가엠지씨커피 수지진산마을점,(커피전문점/커피전문점),경기도 용인시 수지구 상현동 17-1번지,37.31227222,127.0911347,7953501375,2502,가맹
808,헤일로,(커피전문점/커피전문점),경기도 용인시 수지구 고기동 445-12번지,37.36010015,127.0420472,3062392386,2502,가맹
809,동천877,(일반음식점/일반음식점),경기도 용인시 수지구 동천동 877번지,37.33494912,127.0931679,7232301794,2301,가맹
810,플라이디(FLY D),(완구/완구),경기도 용인시 수지구 죽전동 1188-3번지,37.33189658,127.1269473,2211510453,8117,비가맹
811,퍼포미 아트스튜디오,(기타교육.교습.학원/기타교육.교습.학원),경기도 용인시 수지구 풍덕천동 1065-2번지,37.32131617,127.0920112,5749801088,7213,가맹
812,더피아노샵(ThePianoSharp)피아노,(기타교육.교습.학원/기타교육.교습.학원),경기도 용인시 수지구 신봉동 874번지 서홍마을한일아파트 상가동 B01 B02호,37.32424649,127.0819161,3739000990,7213,비가맹
813,쉬즈미헤어,(미용실(두발전문)/미용실(두발전문)),경기도 용인시 수지구 풍덕천동 692번지 토월마을보원아파트,37.32618666,127.0902692,1420977086,1602,가맹
814,머리못하는집,(미용실(두발전문)/미용실(두발전문)),경기도 용인시 수지구 신봉동 82-4번지,37.32425758,127.0774238,8383900142,1602,가맹
815,바우미술학원,(예체능계열학원/예체능계열학원),경기도 용인시 수지구 풍덕천동 1080-1번지,37.32183713,127.0940964,1429077158,7205,가맹
816,히어로애니미술학원,(예체능계열학원/예체능계열학원),경기도 용인시 수지구 상현동 1117-2번지,37.29805081,127.068984,2239103495,7205,가맹
817,본이비인후과의원,(이비인후과/이비인후과),경기도 용인시 수지구 상현동 광교택지개발지구일상4-3-1-가광교스타502,,,1420722947,4208,가맹
818,제이스터디(Jstudy)영어학원,"(입시학원,보습학원/입시학원,보습학원)",경기도 용인시 수지구 신봉동 40-2번지,37.32362315,127.0764567,7029300831,7201,비가맹
819,기찬수학전문학원,"(입시학원,보습학원/입시학원,보습학원)",경기도 용인시 수지구 동천동 886-2번지,37.33402637,127.0974625,1429144275,7201,가맹
820,비타민약국,(약국/약국),경기도 용인시 수지구 성복동 789번지,37.3127533,127.0817766,8620901171,4402,가맹
821,드림약국,(약국/약국),경기도 용인시 수지구 상현동 257-1번지,37.30849181,127.084926,6856100520,4402,가맹
822,수지메디칼약국,(약국/약국),경기도 용인시 수지구 동천동 174-26번지,37.34073796,127.0990185,3030723371,4402,가맹
823,최명희헤어,(미용실(두발전문)/미용실(두발전문)),경기도 용인시 수지구 동천동 176-1번지 용인수지2차풍림아파트,37.34159743,127.099951,5495400100,1602,가맹
824,그린트리,"(애완동물,용품(수족관)/애완동물,용품(수족관))",경기도 용인시 수지구 상현동 1160-2번지,37.29604432,127.0800187,5605100881,8111,가맹
825,(주)오렌지잉글리쉬(Orange English co Ltd,"(입시학원,보습학원/입시학원,보습학원)",경기도 용인시 수지구 성복동 381-2번지,37.32011164,127.0626618,7848702484,7201,비가맹
826,루카스에듀2관학원,"(입시학원,보습학원/입시학원,보습학원)",경기도 용인시 수지구 풍덕천동 1080-1번지,37.32183713,127.0940964,7859401619,7201,가맹
827,다복향마라탕,(중식전문점/중식전문점),경기도 용인시 수지구 죽전동 1178-1번지,37.33224623,127.1235027,8151002277,2302,비가맹
828,신가마라탕,(중식전문점/중식전문점),경기도 용인시 수지구 상현동 254-14번지,37.30676003,127.0846083,1645500639,2302,비가맹
829,스타일 스토리,(미용실(두발전문)/미용실(두발전문)),경기도 용인시 수지구 상현동 1132-3번지,37.29712674,127.0701853,1420822245,1602,가맹
830,일랑헤어,(미용실(두발전문)/미용실(두발전문)),경기도 용인시 수지구 상현동 1219번지 광교상현솔하임,37.30251523,127.0746681,1882100926,1602,가맹
831,수헤어,(미용실(두발전문)/미용실(두발전문)),경기도 용인시 수지구 상현동 866번지 광교상떼빌파크뷰,37.30106523,127.077531,2291302481,1602,가맹
832,헤어리,(미용실(두발전문)/미용실(두발전문)),경기도 용인시 수지구 상현동 252번지,37.30608423,127.0846797,5071900901,1602,가맹
833,ILYN(아이린),(일반의류/일반의류),경기도 용인시 수지구 신봉동 33번지,37.32317795,127.0779942,7265100249,1106,가맹
834,우리옷방,(일반의류/일반의류),경기도 용인시 수지구 동천동 768-3번지,37.34061292,127.0993579,3011764109,1106,가맹
835,고구려대장간,(기타가정.주방용품/기타가정.주방용품),경기도 용인시 수지구 상현동 168-1번지 광교현대프레미오아파트,37.30712871,127.0742133,1020491334,3302,가맹
836,구울래?찔래?,(일반음식점/일반음식점),경기도 용인시 수지구 죽전동 1208-1번지,37.33124735,127.1183942,1420196281,2301,가맹
837,고려밥상,(일반음식점/일반음식점),경기도 용인시 수지구 죽전동 472-26번지,37.32681726,127.1142967,2531801312,2301,가맹
838,쌈빡 스타일,(차량부품.용품/차량부품.용품),경기도 용인시 수지구 풍덕천동 700-1번지,37.32695281,127.0955024,1420770755,6501,가맹
839,아트앤키즈 미술학원,(예체능계열학원/예체능계열학원),경기도 용인시 수지구 풍덕천동 1221번지,37.3144201,127.0841147,6139221903,7205,가맹
840,아모레카운셀러,(통신.방문판매/통신.방문판매),경기도 용인시 수지구 풍덕천동 714-5번지,37.32431807,127.0973563,1420148853,5602,가맹
841,광교PT 필라테스 여성전용 업텐션핏 광교상현본점,(기타교육.교습.학원/기타교육.교습.학원),경기도 용인시 수지구 상현동 1131번지,37.29838789,127.0699637,1103162398,7213,가맹
842,종로떡집,(기타식음료품/기타식음료품),경기도 용인시 수지구 풍덕천동 692번지,37.32631195,127.0900089,1351397645,2105,비가맹
843,신봉민속떡집,(기타식음료품/기타식음료품),경기도 용인시 수지구 신봉동 964-1번지,37.32836951,127.0678853,4624900454,2105,가맹
844,신봉자동차,(자동차정비/자동차정비),경기도 용인시 수지구 신봉동 22-1번지,37.32256832,127.0789231,1420798243,6502,가맹
845,라온,(가구판매점/가구판매점),경기도 용인시 수지구 상현동 850번지 만현마을쌍용아파트,37.30627771,127.0884589,7687400112,3301,가맹
846,복이네아구찜,(일반음식점/일반음식점),경기도 용인시 수지구 죽전동 851-3번지,37.33549458,127.1078855,6494500617,2301,가맹
847,꿈꾸는피카소미술교습소,(기타교육.교습.학원/기타교육.교습.학원),"경기도 용인시 수지구 상현동 1번지 상가-201,용인수지2차동보아파트",37.31341131,127.0869078,1429125695,7213,비가맹
848,유락정,(일반음식점/일반음식점),경기도 용인시 수지구 동천동 937번지,37.33730454,127.0887638,4720101782,2301,가맹
849,아지트(AZIT),(커피전문점/커피전문점),경기도 용인시 수지구 죽전동 1319-4번지,37.32274143,127.1250287,1420993956,2502,비가맹
850,피자마루 용인상현점,(일반음식점/일반음식점),경기도 용인시 수지구 상현동 257-22번지,37.30785998,127.0846813,1384500868,2301,가맹
851,바코드935-1(Barcode-935-1),(일반음식점/일반음식점),경기도 용인시 수지구 신봉동 935-1번지,37.33005505,127.0703477,7861101943,2301,가맹
852,수지맑은피부과,(피부과/피부과),경기도 용인시 수지구 상현동 254-14번지,37.30676003,127.0846083,1420822089,4209,가맹
853,티파니,(일반의류/일반의류),경기도 용인시 수지구 상현동 1113번지 광교더힐,37.29730413,127.0644638,1740501324,1106,가맹
854,이형콜렉션,(일반의류/일반의류),경기도 용인시 수지구 죽전동 876-12번지,37.33287625,127.1093101,1211457336,1106,가맹
855,메인,(일반의류/일반의류),경기도 용인시 수지구 신봉동 105-8번지,37.32472994,127.0734142,8254800342,1106,가맹
856,더테니스존 수지,(기타취미.레저.스포츠/기타취미.레저.스포츠),경기도 용인시 수지구 상현동 12번지,37.31272029,127.0877805,4714300679,8310,가맹
857,바른야구,(기타취미.레저.스포츠/기타취미.레저.스포츠),경기도 용인시 수지구 동천동 610-2번지,37.34332886,127.0644352,3651200797,8310,가맹
858,엔와이씨필라테스(NYC PILATES),(기타취미.레저.스포츠/기타취미.레저.스포츠),경기도 용인시 수지구 신봉동 242-3번지,37.33043346,127.0703004,8361100972,8310,가맹
859,J필라테스,(기타취미.레저.스포츠/기타취미.레저.스포츠),경기도 용인시 수지구 성복동 129-1번지,37.31589689,127.0735657,7061001066,8310,가맹
860,니하오마라탕 신봉점,(중식전문점/중식전문점),경기도 용인시 수지구 신봉동 43-3번지,37.3240163,127.0780121,6611701480,2302,가맹
861,마라공방수지구청점,(중식전문점/중식전문점),경기도 용인시 수지구 풍덕천동 1080-9번지,37.32253617,127.0955487,7277000525,2302,가맹
862,강릉교동짬뽕,(중식전문점/중식전문점),경기도 용인시 수지구 죽전동 1190-5번지,37.33124948,127.1275488,2374500151,2302,가맹
863,샐러데이즈 수지신봉점,(일반음식점/일반음식점),경기도 용인시 수지구 신봉동 925번지,37.32798892,127.0747955,2884300970,2301,가맹
864,고기동황금쉼터,(일반음식점/일반음식점),경기도 용인시 수지구 고기동 190-2번지,37.35957134,127.0618796,7543001267,2301,가맹
865,일미돈까스 단대점,(일반음식점/일반음식점),경기도 용인시 수지구 죽전동 1322-9번지,37.32291751,127.1237072,8654500785,2301,가맹
866,후라이드참잘하는집,(치킨전문점/치킨전문점),경기도 용인시 수지구 풍덕천동 699번지,37.32417122,127.0939484,8301200874,2309,가맹
867,비에이치씨 성복2호점,(치킨전문점/치킨전문점),경기도 용인시 수지구 성복동 33-5번지,37.31071617,127.0817766,4060666653,2309,가맹
868,한국세탁,(세탁업/세탁업),경기도 용인시 수지구 풍덕천동 699번지,37.32417122,127.0939484,1420653026,1301,가맹
869,로이레스튜디오,(사진관.현상소/사진관.현상소),경기도 용인시 수지구 죽전동 1178-1번지,37.33224623,127.1235027,1800900202,8113,가맹
870,인 테니스 (IN TENNIS),(기타취미.레저.스포츠/기타취미.레저.스포츠),경기도 용인시 수지구 죽전동 1493번지 LH 청년나래가,37.33488336,127.1084079,7796100543,8310,가맹
871,나린 필라테스,(기타취미.레저.스포츠/기타취미.레저.스포츠),경기도 용인시 수지구 죽전동 510-4번지,37.33163738,127.1108404,8952601616,8310,가맹
872,아이얀요가,(기타취미.레저.스포츠/기타취미.레저.스포츠),경기도 용인시 수지구 죽전동 1188-5번지,37.33188953,127.1275682,3101962429,8310,가맹
873,한누리요가아카데미,(기타취미.레저.스포츠/기타취미.레저.스포츠),경기도 용인시 수지구 풍덕천동 1080-9번지,37.32253617,127.0955487,1420461411,8310,가맹
874,카미요가(KAMY YOGA),(기타취미.레저.스포츠/기타취미.레저.스포츠),경기도 용인시 수지구 상현동 광교택지개발지구일상4-3-1-가 광교스타703.704호,,,1420707039,8310,가맹
875,월드사진실,(사진관.현상소/사진관.현상소),경기도 용인시 수지구 풍덕천동 3007-1,,,1350947191,8113,비가맹
876,비전약국,(약국/약국),경기도 용인시 수지구 풍덕천동 1080-20번지,37.32197902,127.0960483,1351864737,4402,가맹
877,동성약국,(약국/약국),경기도 용인시 수지구 죽전동 902-2번지,37.32988381,127.1093595,1420882239,4402,가맹
878,수지행복한약국,(약국/약국),경기도 용인시 수지구 풍덕천동 193-12 골드라인빌딩 105,37.3197416,127.0981143,1293124627,4402,가맹
879,플라워&W,(일반음식점/일반음식점),경기도 용인시 수지구 풍덕천동 122-3번지,37.32447774,127.0992517,1420911347,2301,비가맹
880,수지한빛정형외과의원,(정형외과/정형외과),경기도 용인시 수지구 풍덕천동 29-7번지,37.32737715,127.0957033,5139840655,4215,가맹
881,탑헤어(T.O.PHair),(미용실(두발전문)/미용실(두발전문)),경기도 용인시 수지구 풍덕천동 713-4번지,37.32358361,127.0960848,7994800252,1602,가맹
882,아리(Rri),(미용실(두발전문)/미용실(두발전문)),경기도 용인시 수지구 죽전동 1188-5번지,37.33188953,127.1275682,2190238574,1602,가맹
883,지금헤어,(미용실(두발전문)/미용실(두발전문)),경기도 용인시 수지구 성복동 98-10번지,37.31565726,127.0771221,8260301192,1602,가맹
884,경인보수,(기타상품판매점/기타상품판매점),경기도 용인시 수지구 풍덕천1동 703 동보@ B상가 105,,,1350373004,8112,가맹
885,씨유수지한솔점,(편의점/편의점),경기도 용인시 수지구 죽전동 952번지,37.33500456,127.1041966,2713700331,5202,가맹
886,GS25수지문정점,(편의점/편의점),경기도 용인시 수지구 풍덕천동 717-11번지,37.32388702,127.0978327,3950800369,5202,가맹
887,다솜약국,(약국/약국),경기도 용인시 수지구 풍덕천동 1025번지,37.31983888,127.0870983,1200901214,4402,가맹
888,원약국,(약국/약국),경기도 용인시 수지구 성복동 731번지,37.31756564,127.0689177,1420470754,4402,가맹
889,수지햇살약국,(약국/약국),경기도 용인시 수지구 상현동 1131-1번지,37.29814423,127.0698861,1420928135,4402,가맹
890,다온약국,(약국/약국),경기도 용인시 수지구 상현동 1133번지,37.29607775,127.0692548,1420894322,4402,가맹
891,기린약국,(약국/약국),경기도 용인시 수지구 성복동 139번지,37.3157925,127.0746159,8545500504,4402,가맹
892,비빔당,(일반음식점/일반음식점),경기도 용인시 수지구 신봉동 126-1번지,37.32518054,127.0733891,8495800594,2301,비가맹
893,플랜트네일,(피부.체형미관리/피부.체형미관리),경기도 용인시 수지구 동천동 589-4번지,37.34213139,127.0672645,3542101366,1701,가맹
894,로즈배,(피부.체형미관리/피부.체형미관리),경기도 용인시 수지구 죽전동 880-1번지,37.33285037,127.1096602,6825400635,1701,가맹
895,메리네일,(피부.체형미관리/피부.체형미관리),경기도 용인시 수지구 상현동 1131-2번지,37.29790057,127.0698085,5870802423,1701,가맹
896,꾸러기소아과의원,(소아과/소아과),경기도 용인시 수지구 상현동 66-9번지,37.30887165,127.0852851,1429016530,4214,가맹
897,애향치과의원,(기타의료업/기타의료업),경기도 용인시 수지구 성복동 98-10번지,37.31565726,127.0771221,1359059619,4211,비가맹
898,안덴탈랩,(기타약품.의료기기/기타약품.의료기기),경기도 용인시 수지구 상현동 1220번지,37.30030383,127.0713407,2669101567,4501,비가맹
899,포낙보청기 수지센터,(기타약품.의료기기/기타약품.의료기기),경기도 용인시 수지구 풍덕천동 1080-6번지,37.32224518,127.0948053,4400600632,4501,가맹
900,삼성영어미래엔수학효자학원,"(입시학원,보습학원/입시학원,보습학원)",경기도 용인시 수지구 성복동 278-1번지,37.31680607,127.0682562,8569601730,7201,가맹
901,잉글리시아크학원,"(입시학원,보습학원/입시학원,보습학원)",경기도 용인시 수지구 동천동 282번지,37.33328155,127.0931657,4699401677,7201,가맹
902,김시연과학학원,"(입시학원,보습학원/입시학원,보습학원)",경기도 용인시 수지구 풍덕천동 1080-4번지,37.32213632,127.0946027,1429125943,7201,가맹
903,SJS영어학원,"(입시학원,보습학원/입시학원,보습학원)",경기도 용인시 수지구 상현동 252번지,37.30608423,127.0846797,3539200326,7201,가맹
904,얄공방,(기타서비스/기타서비스),경기도 용인시 수지구 죽전동 1171-4번지,37.33301604,127.1190061,3544100540,9602,비가맹
905,수지서울정형외과,(정형외과/정형외과),"경기도 용인시 수지구 풍덕천1동 707,707-1 501-505",,,1359095236,4215,가맹
906,성복한의원,(한의원/한의원),경기도 용인시 수지구 성복동 139번지,37.3157925,127.0746159,4269400045,4212,가맹
907,어울림한의원,(한의원/한의원),경기도 용인시 수지구 상현동 251-3번지,37.30566122,127.0848626,1429082457,4212,가맹
908,경희푸른솔한의원,(한의원/한의원),경기도 용인시 수지구 상현동 66-2번지,37.30946897,127.0859702,1349602681,4212,가맹
909,예울,(통신기기/통신기기),경기도 용인시 수지구 상현동 257-22번지,37.30785998,127.0846813,1245226213,3202,비가맹
910,양쌤영어교습소,(기타교육.교습.학원/기타교육.교습.학원),경기도 용인시 수지구 성복동 82-2번지,37.31495577,127.0775661,1279697327,7213,가맹
911,풍덕천토이공미술교습소,(기타교육.교습.학원/기타교육.교습.학원),경기도 용인시 수지구 풍덕천동 1027번지,37.3184103,127.0858421,3059702830,7213,가맹
912,상현채플린노래연습장,(노래방/노래방),경기도 용인시 수지구 상현동 254-1번지,37.30714857,127.084877,1420113484,8402,가맹
913,수선나라,(기타수리.수선전문/기타수리.수선전문),경기도 용인시 수지구 죽전동 1328-3번지,37.32392895,127.1243004,4192701141,3504,가맹
914,조이플어학원,(외국어학원/외국어학원),경기도 용인시 수지구 풍덕천동 71-163번지,37.32802677,127.1011969,1739201864,7202,가맹
915,카이스트영어마스터학원,(외국어학원/외국어학원),경기도 용인시 수지구 풍덕천동 1049-3번지,37.31940047,127.0880375,7399200869,7202,가맹
916,광교쇼팽음악학원,(예체능계열학원/예체능계열학원),경기도 용인시 수지구 상현동 1130-2번지,37.29774689,127.0746724,5919700132,7205,가맹
917,멍냥의민족 신봉점,"(애완동물,용품(수족관)/애완동물,용품(수족관))",경기도 용인시 수지구 신봉동 973번지,37.32709397,127.0691003,3951002375,8111,가맹
918,멍냥이 편의점,"(애완동물,용품(수족관)/애완동물,용품(수족관))",경기도 용인시 수지구 동천동 873-1번지,37.33597563,127.0928576,4122901498,8111,가맹
919,폴프렌즈,"(애완동물,용품(수족관)/애완동물,용품(수족관))",경기도 용인시 수지구 성복동 637-6번지,37.32185479,127.0468166,2022493794,8111,가맹
920,제이 바버샵,(이발소/이발소),경기도 용인시 수지구 풍덕천동 1195번지 수지푸르지오월드마크,37.32360868,127.1008139,5070543183,1601,비가맹
921,카페아델리나,(일반음식점/일반음식점),경기도 용인시 수지구 신봉동 925번지,37.32798892,127.0747955,5215100760,2301,비가맹
922,하츠케이크,(일반음식점/일반음식점),경기도 용인시 수지구 동천동 349-10번지 한화포레나수지동천,37.34018557,127.0929929,7392000708,2301,가맹
923,봉평메밀,(일반음식점/일반음식점),경기도 용인시 수지구 풍덕천동 708번지,37.32445517,127.0952675,1420775686,2301,가맹
924,윈도우스토리,(커튼.카펫.수건/커튼.카펫.수건),경기도 용인시 수지구 상현동 1220번지,37.30030383,127.0713407,1353217583,1201,가맹
925,싱싱청과,"(농산물,청과물/농산물,청과물)",경기도 용인시 수지구 신봉동 33번지,37.32317795,127.0779942,1519101931,2104,가맹
926,국가대표 푸줏간,"(축산물,정육점/축산물,정육점)",경기도 용인시 수지구 동천동 884-5번지,37.33335532,127.0962808,5929501426,2102,가맹
927,파인HSC,(건강보조식품/건강보조식품),"경기도 용인시 수지구 상현2동 17-1 ,17-3상현프라자 114호,124호",,,1420585759,2201,가맹
928,유천샤브칼국수.냉면,(일반음식점/일반음식점),경기도 용인시 수지구 풍덕천동 1091-16번지,37.3212228,127.0936934,1420816684,2301,가맹
929,피자스톰 수지점,(일반음식점/일반음식점),경기도 용인시 수지구 풍덕천동 729-9번지,37.32532717,127.0998793,4771701513,2301,비가맹
930,이삭토스트 용인상현점,(일반음식점/일반음식점),경기도 용인시 수지구 상현동 254-1번지,37.30714857,127.084877,6471202474,2301,가맹
931,스카프,(일반의류/일반의류),경기도 용인시 수지구 풍덕천동 1060번지 신정마을7단지아파트,37.32050868,127.0904919,8305300159,1106,가맹
932,씨유수지주공점,(편의점/편의점),경기도 용인시 수지구 풍덕천동 1065-1번지,37.32247523,127.0909327,2700601371,5202,가맹
933,지에스25 수지도서관점,(편의점/편의점),경기도 용인시 수지구 풍덕천동 1082-13번지,37.32101015,127.0947668,8790302900,5202,가맹
934,지에스25 죽전중앙점,(편의점/편의점),경기도 용인시 수지구 죽전동 1254-3번지,37.32846913,127.1150106,6910202074,5202,가맹
935,달아트랩,(기타교육.교습.학원/기타교육.교습.학원),경기도 용인시 수지구 죽전동 883-1번지,37.3317244,127.1098918,6620302864,7213,비가맹
936,하나안경콘택트,(안경.광학제품/안경.광학제품),경기도 용인시 수지구 동천동 196번지,37.34082233,127.0999777,1290998657,1403,가맹
937,바이글라스(by glass),(안경.광학제품/안경.광학제품),경기도 용인시 수지구 풍덕천동 945번지,37.32430858,127.1025484,6757900421,1403,가맹
938,센트유니크,(화장품/화장품),경기도 용인시 수지구 죽전동 811번지,37.33442747,127.1095617,5012651303,1501,가맹
939,갱스터도그,"(애완동물,용품(수족관)/애완동물,용품(수족관))",경기도 용인시 수지구 상현동 1157-1번지,37.29787463,127.0801552,7300401597,8111,가맹
940,버블냥,"(애완동물,용품(수족관)/애완동물,용품(수족관))",경기도 용인시 수지구 죽전동 301-1번지,37.3321373,127.1176446,5850201426,8111,가맹
941,헬로똘복(Hello똘복),"(애완동물,용품(수족관)/애완동물,용품(수족관))",경기도 용인시 수지구 죽전동 1190-3번지,37.33140984,127.1269497,1420891591,8111,가맹
942,동성인테리어,(기타전문서비스/기타전문서비스),경기도 용인시 수지구 죽전동 501번지 동성1차아파트,37.33058311,127.1109475,1420483486,9511,가맹
943,지에스25 수지홈타운,(편의점/편의점),경기도 용인시 수지구 죽전동 1304번지 꽃메마을현대홈타운4차3단지아파트 단지내상가 106-1호,37.32228788,127.1184959,3630701821,5202,가맹
944,지에스25 수지우남점,(편의점/편의점),경기도 용인시 수지구 신봉동 905번지 서홍마을우남퍼스트빌,37.32092226,127.0799029,2064392196,5202,비가맹
945,소소한컷 사진관,(사진관.현상소/사진관.현상소),경기도 용인시 수지구 풍덕천동 715-2번지,37.3246253,127.0975804,2281400871,8113,가맹
946,스시 재이(SUSHI J),(일식전문점/일식전문점),경기도 용인시 수지구 상현동 3-4번지,37.3141648,127.0884385,3390202142,2303,비가맹
947,트루플라잉요가,(기타교육.교습.학원/기타교육.교습.학원),경기도 용인시 수지구 상현동 1130번지,37.29784324,127.0738933,6395500924,7213,가맹
948,디자인예공,(기타건축자재/기타건축자재),경기도 용인시 수지구 성복동 740-1번지,37.31528264,127.0807694,1290978893,3403,가맹
949,카페수지(Cafe suji),(커피전문점/커피전문점),경기도 용인시 수지구 풍덕천동 718-6번지,37.32309822,127.0964825,3900802514,2502,비가맹
950,깡통커피&Beer,(커피전문점/커피전문점),경기도 용인시 수지구 풍덕천동 666-6번지,37.33291423,127.0991053,6342901569,2502,가맹
951,영남,(피부.체형미관리/피부.체형미관리),경기도 용인시 수지구 풍덕천동 718-5번지,37.32356843,127.0969201,3035101157,1701,가맹
952,24시 무인 애견용품&펫간식샵 아무도없개 수지동천점,"(애완동물,용품(수족관)/애완동물,용품(수족관))",경기도 용인시 수지구 동천동 371-5번지,37.34039418,127.0986478,1414700999,8111,가맹
953,본죽&비빔밥 동천래미안점,(일반음식점/일반음식점),경기도 용인시 수지구 동천동 938번지 한빛마을래미안이스트팰리스2단지,37.3357563,127.0893819,1562102121,2301,가맹
954,신전떡볶이 수지동천점,(일반음식점/일반음식점),경기도 용인시 수지구 동천동 282번지,37.33328155,127.0931657,3816200737,2301,가맹
955,담꾹 수지만현마을점,(기타식음료품/기타식음료품),경기도 용인시 수지구 상현동 257-1번지,37.30849181,127.084926,7070902441,2105,비가맹
956,가마로강정죽전점,(치킨전문점/치킨전문점),경기도 용인시 수지구 죽전동 1178-2번지,37.33199395,127.1235378,1420865491,2309,가맹
957,도담퐁닭,(치킨전문점/치킨전문점),경기도 용인시 수지구 죽전동 452-6번지,37.32716423,127.1128952,6022361888,2309,비가맹
958,더리터24 용인수지점,(기타식음료품/기타식음료품),경기도 용인시 수지구 풍덕천동 1168번지 진산마을삼성래미안5차아파트 상가동 상가 제1동 109호,37.3193967,127.0974164,2975900728,2105,가맹
959,땅스부대찌개 신봉동점,(기타식음료품/기타식음료품),경기도 용인시 수지구 신봉동 967번지,37.32794718,127.0682489,4113313493,2105,가맹
960,씨유(CU)수지엘지점,(편의점/편의점),경기도 용인시 수지구 성복동 731번지,37.31756564,127.0689177,3075400850,5202,가맹
961,고은e치과,(치과/치과),경기도 용인시 수지구 상현동 1117-1번지,37.29828541,127.0690504,1429149402,4201,비가맹
962,손뜨개이야기,(기타서비스/기타서비스),경기도 용인시 수지구 죽전동 1176-3번지,37.33197752,127.1212125,4961001266,9602,비가맹
963,씨유(CU) 수지진산점,(편의점/편의점),경기도 용인시 수지구 상현동 30번지 성원2차아파트2차상가지하B동2호~3호,37.31414382,127.0927948,1350433159,5202,가맹
964,숲음악교습소,(기타교육.교습.학원/기타교육.교습.학원),경기도 용인시 수지구 죽전동 89-1번지 현대아파트,37.33145473,127.1297602,6859200728,7213,가맹
965,삼성이젠수학교습소,(기타교육.교습.학원/기타교육.교습.학원),경기도 용인시 수지구 풍덕천동 663-1번지,37.32969363,127.0930495,1429071076,7213,비가맹
966,아이원안경원,(안경.광학제품/안경.광학제품),경기도 용인시 수지구 동천동 899번지,37.33825017,127.101696,1295100152,1403,가맹
967,비피 필라테스 수지점,(기타취미.레저.스포츠/기타취미.레저.스포츠),경기도 용인시 수지구 상현동 66-2번지,37.30946897,127.0859702,2570902984,8310,가맹
968,매쓰플랜수학죽전학원,"(입시학원,보습학원/입시학원,보습학원)",경기도 용인시 수지구 죽전동 1177-1번지,37.33196995,127.1216641,4569101573,7201,가맹
969,레드우드국제교육학원,(외국어학원/외국어학원),경기도 용인시 수지구 풍덕천동 29-9번지,37.3270361,127.0961341,1429126087,7202,가맹
970,베로베라아르떼랩(VeroVeraArteLab,(기타교육.교습.학원/기타교육.교습.학원),경기도 용인시 수지구 성복동 393-11번지,37.32041153,127.0584615,6034250463,7213,비가맹
971,제이피티(JPT)샵,(무수도장 등(학원)/무수도장 등(학원)),경기도 용인시 수지구 죽전동 1335-3번지,37.32403058,127.1250787,6609301706,7204,비가맹
972,제이엔에스(JNS) 유도체육관,(무수도장 등(학원)/무수도장 등(학원)),경기도 용인시 수지구 상현동 244-2번지,37.305077,127.0827783,6579801587,7204,가맹
973,촌,(치킨전문점/치킨전문점),경기도 용인시 수지구 성복동 740-1번지,37.31528264,127.0807694,3032428602,2309,가맹
974,제이제이모터스(JJMOTORS),(세차장/세차장),경기도 용인시 수지구 죽전동 513-13번지,37.33290932,127.1111386,1307700147,6702,가맹
975,지에스리테일(GS25죽전도담마을점),(편의점/편의점),경기도 용인시 수지구 죽전동 414번지,37.32567201,127.1141445,1420478722,5202,가맹
976,씨유(CU) 죽전동성점,(편의점/편의점),경기도 용인시 수지구 죽전동 1003-180번지,37.32815288,127.1092781,1350331590,5202,비가맹
977,씨유수지단국프라자점,(편의점/편의점),경기도 용인시 수지구 죽전동 1343-2번지,37.32596821,127.1249675,2151716489,5202,비가맹
978,디아이학원,"(입시학원,보습학원/입시학원,보습학원)",경기도 용인시 수지구 죽전동 1189-5번지,37.33194703,127.1257957,1429127956,7201,가맹
979,디딤돌청명학원,"(입시학원,보습학원/입시학원,보습학원)",경기도 용인시 수지구 동천동 873-3번지,37.3359679,127.0932302,1359151502,7201,가맹
980,수지빈대떡,(일반음식점/일반음식점),경기도 용인시 수지구 풍덕천동 711번지,37.32405109,127.0957211,6170593369,2301,가맹
981,이지헤어,(미용실(두발전문)/미용실(두발전문)),경기도 용인시 수지구 신봉동 33번지,37.32317795,127.0779942,1064450855,1602,가맹
982,(주)아뜰리에영어키즈어학원,(교육및교구/교육및교구),경기도 용인시 수지구 동천동 556-18번지,37.33964924,127.0712978,1428178887,7303,비가맹
983,교학사풍덕천영어교습소,(기타교육.교습.학원/기타교육.교습.학원),경기도 용인시 수지구 풍덕천동 1112번지 신정마을,37.31857959,127.0904572,1299114972,7213,가맹
984,퀀트수학교습소,(기타교육.교습.학원/기타교육.교습.학원),경기도 용인시 수지구 신봉동 50-2번지,37.32310353,127.0798795,5889800661,7213,가맹
985,율아트미술교습소,(기타교육.교습.학원/기타교육.교습.학원),경기도 용인시 수지구 풍덕천동 1027번지,37.3184103,127.0858421,3969801213,7213,가맹
986,몬스터파비아트미술교습소,(기타교육.교습.학원/기타교육.교습.학원),경기도 용인시 수지구 상현동 66-9번지,37.30887165,127.0852851,1819201851,7213,가맹
987,수담재수학교습소,(기타교육.교습.학원/기타교육.교습.학원),경기도 용인시 수지구 죽전동 1259-3번지,37.32590224,127.1184325,6629801537,7213,가맹
988,아이비스터디카페 수지구청점,(기타교육.교습.학원/기타교육.교습.학원),경기도 용인시 수지구 풍덕천동 706-3번지,37.32508667,127.0954221,8291702178,7213,가맹
989,숙명피아노교습소,(기타교육.교습.학원/기타교육.교습.학원),경기도 용인시 수지구 죽전동 89-1번지 현대아파트,37.33145473,127.1297602,4359402033,7213,가맹
990,가위손미용실,(미용실(두발전문)/미용실(두발전문)),경기도 용인시 수지구 죽전1동 190-2 동부상가 206,,,1350456531,1602,가맹
991,친절한 시아씨,(미용실(두발전문)/미용실(두발전문)),경기도 용인시 수지구 풍덕천동 715-2번지,37.3246253,127.0975804,7091801585,1602,가맹
992,올가드림뷰티,(화장품/화장품),경기도 용인시 수지구 죽전동 832번지 벽산타운1단지,37.33652022,127.1045951,8965800377,1501,가맹
993,동천하우스,(화장품/화장품),경기도 용인시 수지구 동천동 948번지,37.33597205,127.0918191,8505500273,1501,가맹
994,베이비스킨,(화장품/화장품),경기도 용인시 수지구 풍덕천동 504-10번지 수지에듀파크,37.31717842,127.0867066,2925100839,1501,가맹
995,이마트24 상현동일스위트점,(편의점/편의점),경기도 용인시 수지구 상현동 838번지,37.30417061,127.0813615,7562701069,5202,가맹
996,서일영수전문학원,"(입시학원,보습학원/입시학원,보습학원)",경기도 용인시 수지구 풍덕천동 1049-1번지,37.31968797,127.0877651,1249225530,7201,비가맹
997,수지소마학원,"(입시학원,보습학원/입시학원,보습학원)",경기도 용인시 수지구 성복동 740-1번지,37.31528264,127.0807694,1429056681,7201,가맹
998,리치유도관,(무수도장 등(학원)/무수도장 등(학원)),경기도 용인시 수지구 신봉동 52-1번지,37.32354561,127.0799899,6529601462,7204,가맹
999,데이파크약국,(약국/약국),경기도 용인시 수지구 성복동 89번지,37.31341877,127.0787936,1293318546,4402,가맹
1000,주식회사 루산후조리원,(산후조리원/산후조리원),경기도 용인시 수지구 상현동 1129번지,37.30050496,127.074623,1188701164,4601,가맹
1001,정다운동물종합병원,(동물병원/동물병원),경기도 용인시 수지구 성복2로 35 (성복동),,,1420449076,8115,가맹
1002,해담은동물병원,(동물병원/동물병원),경기도 용인시 수지구 성복동 278-1번지,37.31680607,127.0682562,1294200048,8115,가맹
1003,번성세탁,(세탁업/세탁업),경기도 용인시 수지구 상현동 832,37.30312418,127.0811303,1340688408,1301,가맹
1004,대명카워시,(세차장/세차장),경기도 용인시 수지구 상현동 493-8번지,37.2993613,127.0674646,6580402222,6702,가맹
1005,오이스터리딩클럽 학원,"(입시학원,보습학원/입시학원,보습학원)",경기도 용인시 수지구 성복동 819번지 성복역롯데캐슬클라시엘,37.31371999,127.0723028,4549001736,7201,가맹
1006,깡우동광교상현역점,(일반음식점/일반음식점),경기도 용인시 수지구 상현동 1131-2번지,37.29790057,127.0698085,5091902244,2301,가맹
1007,대양어패럴 (노스페이스),"(기타레저,스포츠용품/기타레저,스포츠용품)",경기도 용인시 수지구 죽전동 1003-12번지,37.32970111,127.1086267,1420205996,8105,가맹
1008,스마트골프아카데미,(전문스포츠용품점/전문스포츠용품점),경기도 용인시 수지구 죽전동 1190-4번지,37.33128454,127.1272325,5010912133,8121,가맹
1009,벙커디자인,(전문스포츠용품점/전문스포츠용품점),경기도 용인시 수지구 상현동 30번지 진산마을성원상떼빌아파트,37.31277206,127.0923169,1262994475,8121,가맹
1010,노래하는크레용분당수지,(기타교육.교습.학원/기타교육.교습.학원),경기도 용인시 수지구 죽전동 1188-4번지,37.33189747,127.1272295,6860402270,7213,가맹
1011,스코 수지성복점,(기타교육.교습.학원/기타교육.교습.학원),경기도 용인시 수지구 성복동 139번지,37.3157925,127.0746159,1443200989,7213,가맹
1012,풍덕포차,(일반음식점/일반음식점),경기도 용인시 수지구 풍덕천동 710-7번지,37.32471352,127.0970156,3590502905,2301,비가맹
1013,복실이,(일반의류/일반의류),경기도 용인시 수지구 풍덕천동 705-4번지,37.32516032,127.0958732,1350985744,1106,가맹
1014,단지옷장,(일반의류/일반의류),경기도 용인시 수지구 상현동 859번지 만현마을롯데캐슬아파트,37.31187413,127.090708,2173400471,1106,비가맹
1015,정통상,(일반의류/일반의류),경기도 용인시 수지구 죽전2동 903,37.32993547,127.1086255,1420146869,1106,가맹
1016,오늘,(일반의류/일반의류),경기도 용인시 수지구 풍덕천동 1091-1번지,37.32124907,127.0934675,8901502332,1106,가맹
1017,프리즘 PRIZM,(일반음식점/일반음식점),경기도 용인시 수지구 고기동 102-2번지,37.35840599,127.0685375,2251062598,2301,가맹
